{"path": ["TX", "Bexar"], "total_courses": {"2022/01/05": {"Evusheld": 1464, "Molnupiravir": 820, "Paxlovid": 120}, "2022/01/07": {"Evusheld": 744, "Molnupiravir": 820, "Paxlovid": 120}, "2022/01/10": {"Evusheld": 1416, "Molnupiravir": 820, "Paxlovid": 120}, "2022/01/11": {"Evusheld": 888, "Molnupiravir": 1220, "Paxlovid": 240}, "2022/01/12": {"Evusheld": 1056, "Molnupiravir": 1220, "Paxlovid": 240}, "2022/01/13": {"Evusheld": 1056, "Molnupiravir": 1200, "Paxlovid": 560}, "2022/01/14": {"Evusheld": 1512, "Molnupiravir": 2560, "Paxlovid": 580}, "2022/01/19": {"Evusheld": 1416, "Molnupiravir": 2840, "Paxlovid": 580}, "2022/01/21": {"Evusheld": 1416, "Molnupiravir": 2840, "Paxlovid": 580}}, "courses_delivered": {"2022/01/05": {"Evusheld": 578, "Molnupiravir": 402, "Paxlovid": 60}, "2022/01/07": {"Evusheld": 193, "Molnupiravir": 405, "Paxlovid": 60}, "2022/01/10": {"Evusheld": 386, "Molnupiravir": 430, "Paxlovid": 120}, "2022/01/11": {"Evusheld": 265, "Molnupiravir": 249, "Paxlovid": 120}, "2022/01/12": {"Evusheld": 337, "Molnupiravir": 276, "Paxlovid": 120}, "2022/01/13": {"Evusheld": 386, "Molnupiravir": 110, "Paxlovid": 380}, "2022/01/14": {"Evusheld": 794, "Molnupiravir": 1192, "Paxlovid": 376}, "2022/01/19": {"Evusheld": 626, "Molnupiravir": 1190, "Paxlovid": 200}, "2022/01/21": {"Evusheld": 486, "Molnupiravir": 902, "Paxlovid": 229}}, "courses_available": {"2022/01/05": {"Evusheld": 478, "Molnupiravir": 158, "Paxlovid": 0}, "2022/01/07": {"Evusheld": 335, "Molnupiravir": 155, "Paxlovid": 0}, "2022/01/10": {"Evusheld": 670, "Molnupiravir": 290, "Paxlovid": 0}, "2022/01/11": {"Evusheld": 407, "Molnupiravir": 711, "Paxlovid": 0}, "2022/01/12": {"Evusheld": 407, "Molnupiravir": 684, "Paxlovid": 0}, "2022/01/13": {"Evusheld": 550, "Molnupiravir": 1072, "Paxlovid": 100}, "2022/01/14": {"Evusheld": 550, "Molnupiravir": 1008, "Paxlovid": 124}, "2022/01/19": {"Evusheld": 718, "Molnupiravir": 1480, "Paxlovid": 320}, "2022/01/21": {"Evusheld": 858, "Molnupiravir": 1908, "Paxlovid": 291}}, "children": {}, "child_treatments": [], "providers": {"2030": {"provider_name": "Uhssa Southwest Family Health Pharm", "address1": "2121 Sw 36th St", "address2": "Pharmacy", "city": "San Antonio", "county": "Bexar", "state_code": "TX", "zip_code": "78237", "lat": 29.407976, "lng": -98.57471, "order_label": "Molnupiravir"}, "2031": {"provider_name": "Walgreens Store #03141", "address1": "1105 Goliad Rd", "address2": null, "city": "San Antonio", "county": "Bexar", "state_code": "TX", "zip_code": "78223", "lat": 29.376293, "lng": -98.44903, "order_label": "Paxlovid"}, "2032": {"provider_name": "Walmart Pharmacy #1235", "address1": "5025 Nw Loop 410", "address2": null, "city": "San Antonio", "county": "Bexar", "state_code": "TX", "zip_code": "78229", "lat": 29.487512, "lng": -98.586858, "order_label": "Molnupiravir"}, "2033": {"provider_name": "Walmart Pharmacy #1347", "address1": "1430 Austin Hwy", "address2": null, "city": "San Antonio", "county": "Bexar", "state_code": "TX", "zip_code": "78209", "lat": 29.491734, "lng": -98.437882, "order_label": "Molnupiravir"}, "2034": {"provider_name": "Uhs Pavilion Pharmacy", "address1": "4647 Medical Dr", "address2": null, "city": "San Antonio", "county": "Bexar", "state_code": "TX", "zip_code": "78229", "lat": 29.509562, "lng": -98.576927, "order_label": "Molnupiravir"}, "2035": {"provider_name": "Walmart Pharmacy #2599", "address1": "5555 De Zavala Rd", "address2": null, "city": "San Antonio", "county": "Bexar", "state_code": "TX", "zip_code": "78249", "lat": 29.563074, "lng": -98.595356, "order_label": "Molnupiravir"}, "2036": {"provider_name": "Carvajal Pharmacy San Antonio 341", "address1": "3410 Roosevelt Ave", "address2": null, "city": "San Antonio", "county": "Bexar", "state_code": "TX", "zip_code": "78214", "lat": 29.358438, "lng": -98.481205, "order_label": "Molnupiravir"}, "2037": {"provider_name": "Walmart Pharmacy #5226", "address1": "9526 W Military Dr", "address2": null, "city": "San Antonio", "county": "Bexar", "state_code": "TX", "zip_code": "78251", "lat": 29.460094, "lng": -98.671346, "order_label": "Molnupiravir"}, "2038": {"provider_name": "Centromed - Palo Alto Clinic", "address1": "918 Wagner", "address2": null, "city": "San Antonio", "county": "Bexar", "state_code": "TX", "zip_code": "78211", "lat": 29.364822, "lng": -98.534955, "order_label": "Paxlovid"}, "2039": {"provider_name": "Davila Pharmacy", "address1": "1423 Guadalupe St", "address2": "108", "city": "San Antonio", "county": "Bexar", "state_code": "TX", "zip_code": "78207", "lat": 29.418569, "lng": -98.516495, "order_label": "Molnupiravir"}, "2040": {"provider_name": "Walmart Pharmacy #5146", "address1": "8030 Bandera Rd", "address2": null, "city": "San Antonio", "county": "Bexar", "state_code": "TX", "zip_code": "78250", "lat": 29.517052, "lng": -98.635686, "order_label": "Molnupiravir"}, "2041": {"provider_name": "Heb Pharmacy 555", "address1": "910 Kitty Hawk Road", "address2": null, "city": "Universal City", "county": "Bexar", "state_code": "TX", "zip_code": "78148-3806", "lat": 29.547993, "lng": -98.312611, "order_label": "Molnupiravir"}, "2042": {"provider_name": "Heb Pharmacy 26", "address1": "4100 S New Braunfels Ave", "address2": null, "city": "San Antonio", "county": "Bexar", "state_code": "TX", "zip_code": "78223-1717", "lat": 29.380052, "lng": -98.461225, "order_label": "Molnupiravir"}, "2043": {"provider_name": "Walmart Pharmacy #3279", "address1": "2100 Se Loop 410", "address2": null, "city": "San Antonio", "county": "Bexar", "state_code": "TX", "zip_code": "78220", "lat": 29.400425, "lng": -98.388687, "order_label": "Paxlovid"}, "2044": {"provider_name": "Hca Methodist Hosp And Childrens H", "address1": "7700 Floyd Curl Dr", "address2": "Sl1 Main Pharmacy", "city": "San Antonio", "county": "Bexar", "state_code": "TX", "zip_code": "78229", "lat": 29.507005, "lng": -98.573157, "order_label": "Evusheld"}, "2045": {"provider_name": "Heb Pharmacy 699", "address1": "1601 Nogalitos St", "address2": null, "city": "San Antonio", "county": "Bexar", "state_code": "TX", "zip_code": "78204-2427", "lat": 29.397433, "lng": -98.514332, "order_label": "Molnupiravir"}, "2046": {"provider_name": "Walmart Pharmacy #3112", "address1": "4096 N Foster Rd", "address2": null, "city": "San Antonio", "county": "Bexar", "state_code": "TX", "zip_code": "78244", "lat": 29.464952, "lng": -98.359404, "order_label": "Molnupiravir"}, "2047": {"provider_name": "Heb Pharmacy 205", "address1": "721 Castroville Rd", "address2": null, "city": "San Antonio", "county": "Bexar", "state_code": "TX", "zip_code": "78237-3134", "lat": 29.41663, "lng": -98.553783, "order_label": "Molnupiravir"}, "2048": {"provider_name": "Walmart Pharmacy #4131", "address1": "9427 Culebra Rd", "address2": null, "city": "San Antonio", "county": "Bexar", "state_code": "TX", "zip_code": "78251", "lat": 29.48618, "lng": -98.669461, "order_label": "Molnupiravir"}, "2049": {"provider_name": "Walmart Pharmacy #3106", "address1": "8538 Interstate Highway 35 S", "address2": null, "city": "San Antonio", "county": "Bexar", "state_code": "TX", "zip_code": "78211", "lat": 29.341093, "lng": -98.556101, "order_label": "Molnupiravir"}, "2050": {"provider_name": "Heb Pharmacy 189", "address1": "2130 Culebra Rd", "address2": null, "city": "San Antonio", "county": "Bexar", "state_code": "TX", "zip_code": "78228-6308", "lat": 29.446844, "lng": -98.542165, "order_label": "Molnupiravir"}, "2051": {"provider_name": "Christus Santa Rosa Westover Hills", "address1": "11212 Tx151", "address2": "Attn: Pharmacy David", "city": "San Antonio", "county": "Bexar", "state_code": "TX", "zip_code": "78251", "lat": 29.467433, "lng": -98.6968898, "order_label": "Evusheld"}, "2052": {"provider_name": "Heb Pharmacy 444", "address1": "3323 Se Military Dr.", "address2": null, "city": "San Antonio", "county": "Bexar", "state_code": "TX", "zip_code": "78223-3814", "lat": 29.353554, "lng": -98.425446, "order_label": "Molnupiravir"}, "2053": {"provider_name": "Uhssa Robert B Green Pharmacy", "address1": "903 W Martin St", "address2": null, "city": "San Antonio", "county": "Bexar", "state_code": "TX", "zip_code": "78207", "lat": 29.429952, "lng": -98.501576, "order_label": "Molnupiravir"}, "2054": {"provider_name": "Walmart Pharmacy #5245", "address1": "3302 Se Military Dr", "address2": null, "city": "San Antonio", "county": "Bexar", "state_code": "TX", "zip_code": "78223", "lat": 29.351864, "lng": -98.43153, "order_label": "Molnupiravir"}, "2055": {"provider_name": "Walmart Pharmacy #4056", "address1": "10781 Toepperwein Rd", "address2": null, "city": "Converse", "county": "Bexar", "state_code": "TX", "zip_code": "78109", "lat": 29.536958, "lng": -98.333271, "order_label": "Molnupiravir"}, "2056": {"provider_name": "Walmart Pharmacy #4162", "address1": "12639 Blanco Rd", "address2": null, "city": "San Antonio", "county": "Bexar", "state_code": "TX", "zip_code": "78216", "lat": 29.557274, "lng": -98.516368, "order_label": "Molnupiravir"}, "2057": {"provider_name": "Walmart Pharmacy #2835", "address1": "9006 Guilbeau Rd", "address2": null, "city": "San Antonio", "county": "Bexar", "state_code": "TX", "zip_code": "78250", "lat": 29.519014, "lng": -98.660928, "order_label": "Molnupiravir"}, "2058": {"provider_name": "Walmart Pharmacy #2769", "address1": "5626 Walzem Road", "address2": null, "city": "San Antonio", "county": "Bexar", "state_code": "TX", "zip_code": "78218", "lat": 29.510298, "lng": -98.375038, "order_label": "Molnupiravir"}, "2059": {"provider_name": "Heb Pharmacy 618", "address1": "5910 Babcock Rd", "address2": null, "city": "San Antonio", "county": "Bexar", "state_code": "TX", "zip_code": "78240-2136", "lat": 29.527684, "lng": -98.60184, "order_label": "Molnupiravir"}, "2060": {"provider_name": "Walmart Pharmacy #999", "address1": "7239 Sw Loop 410", "address2": null, "city": "San Antonio", "county": "Bexar", "state_code": "TX", "zip_code": "78242", "lat": 29.359611, "lng": -98.632774, "order_label": "Molnupiravir"}, "2061": {"provider_name": "Walmart Pharmacy #3058", "address1": "918 Bandera Rd", "address2": null, "city": "San Antonio", "county": "Bexar", "state_code": "TX", "zip_code": "78228", "lat": 29.457306, "lng": -98.555044, "order_label": "Paxlovid"}, "2062": {"provider_name": "Walmart Pharmacy #1803", "address1": "4331 Thousand Oaks Dr", "address2": null, "city": "San Antonio", "county": "Bexar", "state_code": "TX", "zip_code": "78217", "lat": 29.55091, "lng": -98.408003, "order_label": "Molnupiravir"}, "2063": {"provider_name": "Walmart Pharmacy #5290", "address1": "1515 S Ellison Dr", "address2": null, "city": "San Antonio", "county": "Bexar", "state_code": "TX", "zip_code": "78245", "lat": 29.416932, "lng": -98.678267, "order_label": "Molnupiravir"}, "2064": {"provider_name": "Walmart Pharmacy #5144", "address1": "8315 Fm 78", "address2": null, "city": "Converse", "county": "Bexar", "state_code": "TX", "zip_code": "78109", "lat": 29.49647, "lng": -98.3243, "order_label": "Molnupiravir"}, "2065": {"provider_name": "Ut Health Marc Speciality", "address1": "8300 Floyd Curl Drive", "address2": null, "city": "San Antonio", "county": "Bexar", "state_code": "TX", "zip_code": "78229", "lat": 29.514719, "lng": -98.581743, "order_label": "Evusheld"}, "2066": {"provider_name": "Texas Oncology San Antonio Med Ctr", "address1": "5206 Research Drive", "address2": null, "city": "San Antonio", "county": "Bexar", "state_code": "TX", "zip_code": "78240", "lat": 29.540877, "lng": -98.586731, "order_label": "Evusheld"}, "2067": {"provider_name": "Heb Pharmacy 678", "address1": "368 Valley Hi Drive", "address2": null, "city": "San Antonio", "county": "Bexar", "state_code": "TX", "zip_code": "78227-4602", "lat": 29.381753, "lng": -98.638166, "order_label": "Molnupiravir"}, "2068": {"provider_name": "Heb Pharmacy 466", "address1": "108 N Rosillo", "address2": null, "city": "San Antonio", "county": "Bexar", "state_code": "TX", "zip_code": "78207-3706", "lat": 29.428486, "lng": -98.525644, "order_label": "Molnupiravir"}, "2069": {"provider_name": "Heb Pharmacy 262", "address1": "5601 Bandera Rd", "address2": null, "city": "San Antonio", "county": "Bexar", "state_code": "TX", "zip_code": "78238-1986", "lat": 29.480708, "lng": -98.595014, "order_label": "Molnupiravir"}, "2070": {"provider_name": "Walgreens Store #15932", "address1": "901 Bitters Rd", "address2": null, "city": "San Antonio", "county": "Bexar", "state_code": "TX", "zip_code": "78216", "lat": 29.562983, "lng": -98.479896, "order_label": "Molnupiravir"}, "2071": {"provider_name": "Heb Pharmacy 613", "address1": "8219 Marbach Rd", "address2": null, "city": "San Antonio", "county": "Bexar", "state_code": "TX", "zip_code": "78227-1652", "lat": 29.417834, "lng": -98.652356, "order_label": "Molnupiravir"}, "2072": {"provider_name": "Carvajal Pharmacy Ltc Llc", "address1": "119 Huizar", "address2": null, "city": "San Antonio", "county": "Bexar", "state_code": "TX", "zip_code": "78214", "lat": 29.357884, "lng": -98.480324, "order_label": "Molnupiravir"}, "2073": {"provider_name": "Walmart Pharmacy #4055", "address1": "510 Kitty Hawk Rd", "address2": null, "city": "Universal City", "county": "Bexar", "state_code": "TX", "zip_code": "78148", "lat": 29.55031, "lng": -98.308099, "order_label": "Molnupiravir"}, "2074": {"provider_name": "Walmart Pharmacy #5145", "address1": "1603 Vance Jackson Rd", "address2": null, "city": "San Antonio", "county": "Bexar", "state_code": "TX", "zip_code": "78213", "lat": 29.487844, "lng": -98.534973, "order_label": "Molnupiravir"}, "2075": {"provider_name": "Heb Pharmacy 384", "address1": "6030 Montgomery Road", "address2": null, "city": "San Antonio", "county": "Bexar", "state_code": "TX", "zip_code": "78239-3233", "lat": 29.510686, "lng": -98.370773, "order_label": "Molnupiravir"}, "2076": {"provider_name": "Walmart Pharmacy #1313", "address1": "1200 Se Military Dr", "address2": null, "city": "San Antonio", "county": "Bexar", "state_code": "TX", "zip_code": "78214", "lat": 29.354484, "lng": -98.478399, "order_label": "Molnupiravir"}, "2077": {"provider_name": "Walmart Pharmacy #2404", "address1": "8500 Jones Maltsberger Rd", "address2": null, "city": "San Antonio", "county": "Bexar", "state_code": "TX", "zip_code": "78216", "lat": 29.515339, "lng": -98.483159, "order_label": "Molnupiravir"}, "2078": {"provider_name": "Heb Pharmacy 494", "address1": "10660 West Fm 471", "address2": null, "city": "San Antonio", "county": "Bexar", "state_code": "TX", "zip_code": "78251-1320", "lat": 29.493011, "lng": -98.70176, "order_label": "Molnupiravir"}, "2079": {"provider_name": "Uhssa University Hospital", "address1": "4502 Medical Dr", "address2": null, "city": "San Antonio", "county": "Bexar", "state_code": "TX", "zip_code": "78229", "lat": 29.509462, "lng": -98.576959, "order_label": "Evusheld"}, "2080": {"provider_name": "Heb Pharmacy 623", "address1": "9238 N Loop 1604 W", "address2": null, "city": "San Antonio", "county": "Bexar", "state_code": "TX", "zip_code": "78249-2577", "lat": 29.555036, "lng": -98.6647, "order_label": "Molnupiravir"}, "2081": {"provider_name": "Heb Pharmacy 480", "address1": "9900 Wurzbach Rd", "address2": null, "city": "San Antonio", "county": "Bexar", "state_code": "TX", "zip_code": "78230-2212", "lat": 29.532064, "lng": -98.561152, "order_label": "Molnupiravir"}}, "treatments": {"2030": {"Molnupiravir": 40}, "2031": {"Molnupiravir": 251, "Paxlovid": 7}, "2032": {"Molnupiravir": 20}, "2033": {"Molnupiravir": 20}, "2034": {"Molnupiravir": 40}, "2035": {"Molnupiravir": 20}, "2036": {"Paxlovid": 9, "Molnupiravir": 30}, "2037": {"Molnupiravir": 19}, "2038": {"Molnupiravir": 388, "Paxlovid": 160}, "2039": {"Paxlovid": 18, "Molnupiravir": 90}, "2040": {"Molnupiravir": 20}, "2041": {"Molnupiravir": 20}, "2042": {"Molnupiravir": 1}, "2043": {"Molnupiravir": 34, "Paxlovid": 36}, "2044": {"Evusheld": 216}, "2045": {"Molnupiravir": 20}, "2046": {"Molnupiravir": 20}, "2047": {"Molnupiravir": 20}, "2048": {"Molnupiravir": 19}, "2049": {"Molnupiravir": 18}, "2050": {"Molnupiravir": 21}, "2051": {"Evusheld": 144}, "2052": {"Molnupiravir": 19}, "2053": {"Molnupiravir": 40}, "2054": {"Molnupiravir": 18}, "2055": {"Molnupiravir": 20}, "2056": {"Molnupiravir": 19}, "2057": {"Molnupiravir": 20}, "2058": {"Molnupiravir": 20}, "2059": {"Molnupiravir": 20}, "2060": {"Molnupiravir": 16}, "2061": {"Molnupiravir": 22, "Paxlovid": 22}, "2062": {"Paxlovid": 5, "Molnupiravir": 17}, "2063": {"Molnupiravir": 19}, "2064": {"Molnupiravir": 20}, "2065": {"Evusheld": 71}, "2066": {"Evusheld": 91}, "2067": {"Molnupiravir": 19}, "2068": {"Molnupiravir": 20}, "2069": {"Molnupiravir": 40}, "2070": {"Paxlovid": 17, "Molnupiravir": 203}, "2071": {"Molnupiravir": 19}, "2072": {"Paxlovid": 17, "Molnupiravir": 35}, "2073": {"Molnupiravir": 17}, "2074": {"Molnupiravir": 18}, "2075": {"Molnupiravir": 37}, "2076": {"Molnupiravir": 21}, "2077": {"Molnupiravir": 20}, "2078": {"Molnupiravir": 20}, "2079": {"Evusheld": 336}, "2080": {"Molnupiravir": 18}, "2081": {"Molnupiravir": 40}}}