{"path": ["CA", "Santa Clara"], "total_courses": {"2022/01/05": {"Evusheld": 696, "Molnupiravir": 960, "Paxlovid": 200}, "2022/01/07": {"Evusheld": 360, "Molnupiravir": 960, "Paxlovid": 200}, "2022/01/10": {"Evusheld": 360, "Molnupiravir": 960, "Paxlovid": 200}, "2022/01/11": {"Evusheld": 360, "Molnupiravir": 960, "Paxlovid": 200}, "2022/01/12": {"Evusheld": 528, "Molnupiravir": 960, "Paxlovid": 200}, "2022/01/13": {"Evusheld": 528, "Molnupiravir": 960, "Paxlovid": 220}}, "courses_delivered": {"2022/01/05": {"Evusheld": 336, "Molnupiravir": 0, "Paxlovid": 114}, "2022/01/07": {"Evusheld": 168, "Molnupiravir": 0, "Paxlovid": 108}, "2022/01/10": {"Evusheld": 168, "Molnupiravir": 3, "Paxlovid": 85}, "2022/01/11": {"Evusheld": 144, "Molnupiravir": 365, "Paxlovid": 108}, "2022/01/12": {"Evusheld": 241, "Molnupiravir": 209, "Paxlovid": 128}, "2022/01/13": {"Evusheld": 170, "Molnupiravir": 50, "Paxlovid": 151}}, "courses_available": {"2022/01/05": {"Evusheld": 336, "Molnupiravir": 0, "Paxlovid": 86}, "2022/01/07": {"Evusheld": 168, "Molnupiravir": 200, "Paxlovid": 92}, "2022/01/10": {"Evusheld": 168, "Molnupiravir": 197, "Paxlovid": 125}, "2022/01/11": {"Evusheld": 192, "Molnupiravir": 555, "Paxlovid": 92}, "2022/01/12": {"Evusheld": 263, "Molnupiravir": 731, "Paxlovid": 72}, "2022/01/13": {"Evusheld": 334, "Molnupiravir": 909, "Paxlovid": 49}}, "children": {}, "child_treatments": [], "providers": {"2110": {"provider_name": "Valley Health Center At Downtown Ph", "address1": "777 E Santa Clara St.", "address2": null, "city": "San Jose", "county": "Santa Clara", "state_code": "CA", "zip_code": "95112", "lat": 37.343522, "lng": -121.875062, "order_label": "Paxlovid"}, "2111": {"provider_name": "Valley Health Center At Moorpark Ph", "address1": "2400 Moorpark Ave", "address2": "Suite 101", "city": "San Jose", "county": "Santa Clara", "state_code": "CA", "zip_code": "95111", "lat": 37.316098, "lng": -121.937093, "order_label": "Paxlovid"}, "2112": {"provider_name": "Cvs Store #09812", "address1": "2514 Berryessa Rd", "address2": "Cvs Pharmacy", "city": "San Jose", "county": "Santa Clara", "state_code": "CA", "zip_code": "95132", "lat": 37.3870304, "lng": -121.8586627, "order_label": "Molnupiravir"}, "2113": {"provider_name": "Valley Health Center At Milpitas Ph", "address1": "143 N Main St", "address2": "Ste 1038", "city": "Milpitas", "county": "Santa Clara", "state_code": "CA", "zip_code": "95035", "lat": 37.432252, "lng": -121.907434, "order_label": "Molnupiravir"}, "2114": {"provider_name": "Stanford Health Care - 300p", "address1": "300 Pasteur Dr, Room Ho301", "address2": null, "city": "Stanford", "county": "Santa Clara", "state_code": "CA", "zip_code": "94305", "lat": 37.433138, "lng": -122.176664, "order_label": "Evusheld"}, "2115": {"provider_name": "Valley Health Center Sunnyvale Ph", "address1": "660 S. Fair Oaks Ave", "address2": "Suite 1057", "city": "Sunnyvale", "county": "Santa Clara", "state_code": "CA", "zip_code": "94086", "lat": 37.364693, "lng": -122.023995, "order_label": "Paxlovid"}, "2116": {"provider_name": "Valley Health Center At Gilroy Ph", "address1": "7475 Camino Arroyo", "address2": "Suite 1025", "city": "Gilroy", "county": "Santa Clara", "state_code": "CA", "zip_code": "95020", "lat": 37.011289, "lng": -121.556547, "order_label": "Molnupiravir"}, "2117": {"provider_name": "Santa Clara Valley Medical Center -", "address1": "751 S Bascom Ave", "address2": null, "city": "San Jose", "county": "Santa Clara", "state_code": "CA", "zip_code": "95128", "lat": 37.314046, "lng": -121.931903, "order_label": "Evusheld"}, "2118": {"provider_name": "Lucile Packard Childrens Hospital", "address1": "725 Welch Rd Attn Department Of", "address2": "Pharmacy", "city": "Palo Alto", "county": "Santa Clara", "state_code": "CA", "zip_code": "94304", "lat": 37.437397, "lng": -122.17514, "order_label": "Evusheld"}, "2119": {"provider_name": "Kaiser Perm Santa Clara Homestead", "address1": "700 Lawrence Expy", "address2": "Inpatient Pharmacy, Dept. 301", "city": "Santa Clara", "county": "Santa Clara", "state_code": "CA", "zip_code": "95051", "lat": 37.335456, "lng": -121.995767, "order_label": "Evusheld"}}, "treatments": {"2110": {"Molnupiravir": 199, "Paxlovid": 13}, "2111": {"Molnupiravir": 200, "Paxlovid": 17}, "2112": {"Molnupiravir": 92}, "2113": {"Paxlovid": 9, "Molnupiravir": 59}, "2114": {"Evusheld": 191}, "2115": {"Molnupiravir": 179, "Paxlovid": 7}, "2116": {"Paxlovid": 3, "Molnupiravir": 180}, "2117": {"Evusheld": 47}, "2118": {"Evusheld": 48}, "2119": {"Evusheld": 48}}}