{"path": ["CA", "Santa Clara"], "total_courses": {"2022/01/05": {"Evusheld": 696, "Molnupiravir": 960, "Paxlovid": 200}, "2022/01/07": {"Evusheld": 360, "Molnupiravir": 960, "Paxlovid": 200}, "2022/01/10": {"Evusheld": 360, "Molnupiravir": 960, "Paxlovid": 200}}, "courses_delivered": {"2022/01/05": {"Evusheld": 336, "Molnupiravir": 0, "Paxlovid": 114}, "2022/01/07": {"Evusheld": 168, "Molnupiravir": 0, "Paxlovid": 108}, "2022/01/10": {"Evusheld": 168, "Molnupiravir": 3, "Paxlovid": 85}}, "courses_available": {"2022/01/05": {"Evusheld": 336, "Molnupiravir": 0, "Paxlovid": 86}, "2022/01/07": {"Evusheld": 168, "Molnupiravir": 200, "Paxlovid": 92}, "2022/01/10": {"Evusheld": 168, "Molnupiravir": 197, "Paxlovid": 125}}, "children": {}, "child_treatments": [], "providers": {"1856": {"provider_name": "Valley Health Center At Gilroy Ph", "address1": "7475 Camino Arroyo", "address2": "Suite 1025", "city": "Gilroy", "county": "Santa Clara", "state_code": "CA", "zip_code": "95020", "lat": 37.011289, "lng": -121.556547, "order_label": "Paxlovid"}, "1857": {"provider_name": "Santa Clara Valley Medical Center -", "address1": "751 S Bascom Ave", "address2": null, "city": "San Jose", "county": "Santa Clara", "state_code": "CA", "zip_code": "95128", "lat": 37.314046, "lng": -121.931903, "order_label": "Evusheld"}, "1858": {"provider_name": "Stanford Health Care - 300p", "address1": "300 Pasteur Dr, Room Ho301", "address2": null, "city": "Stanford", "county": "Santa Clara", "state_code": "CA", "zip_code": "94305", "lat": 37.433138, "lng": -122.176664, "order_label": "Evusheld"}, "1859": {"provider_name": "Cvs Store #09812", "address1": "2514 Berryessa Rd", "address2": "Cvs Pharmacy", "city": "San Jose", "county": "Santa Clara", "state_code": "CA", "zip_code": "95132", "lat": 37.3870304, "lng": -121.8586627, "order_label": "Paxlovid"}, "1860": {"provider_name": "Valley Health Center At Moorpark Ph", "address1": "2400 Moorpark Ave", "address2": "Suite 101", "city": "San Jose", "county": "Santa Clara", "state_code": "CA", "zip_code": "95111", "lat": 37.316098, "lng": -121.937093, "order_label": "Paxlovid"}, "1861": {"provider_name": "Lucile Packard Childrens Hospital", "address1": "725 Welch Rd Attn Department Of", "address2": "Pharmacy", "city": "Palo Alto", "county": "Santa Clara", "state_code": "CA", "zip_code": "94304", "lat": 37.437397, "lng": -122.17514, "order_label": "Evusheld"}, "1862": {"provider_name": "Kaiser Perm Santa Clara Homestead", "address1": "700 Lawrence Expy", "address2": "Inpatient Pharmacy, Dept. 301", "city": "Santa Clara", "county": "Santa Clara", "state_code": "CA", "zip_code": "95051", "lat": 37.335456, "lng": -121.995767, "order_label": "Evusheld"}, "1863": {"provider_name": "Valley Health Center At Downtown Ph", "address1": "777 E Santa Clara St.", "address2": null, "city": "San Jose", "county": "Santa Clara", "state_code": "CA", "zip_code": "95112", "lat": 37.343522, "lng": -121.875062, "order_label": "Paxlovid"}, "1864": {"provider_name": "Valley Health Center At Milpitas Ph", "address1": "143 N Main St", "address2": "Ste 1038", "city": "Milpitas", "county": "Santa Clara", "state_code": "CA", "zip_code": "95035", "lat": 37.432252, "lng": -121.907434, "order_label": "Molnupiravir"}, "1865": {"provider_name": "Valley Health Center Sunnyvale Ph", "address1": "660 S. Fair Oaks Ave", "address2": "Suite 1057", "city": "Sunnyvale", "county": "Santa Clara", "state_code": "CA", "zip_code": "94086", "lat": 37.364693, "lng": -122.023995, "order_label": "Paxlovid"}}, "treatments": {"1856": {"Paxlovid": 18}, "1857": {"Evusheld": 24}, "1858": {"Evusheld": 96}, "1859": {"Molnupiravir": 98, "Paxlovid": 1}, "1860": {"Paxlovid": 50}, "1861": {"Evusheld": 24}, "1862": {"Evusheld": 24}, "1863": {"Paxlovid": 40}, "1864": {"Paxlovid": 12, "Molnupiravir": 99}, "1865": {"Paxlovid": 4}}}