{"path": ["AR", "Pulaski"], "total_courses": {"2022/01/05": {"Evusheld": 888, "Molnupiravir": 260, "Paxlovid": 80}, "2022/01/07": {"Evusheld": 480, "Molnupiravir": 300, "Paxlovid": 80}, "2022/01/10": {"Evusheld": 840, "Molnupiravir": 300, "Paxlovid": 80}, "2022/01/11": {"Evusheld": 600, "Molnupiravir": 300, "Paxlovid": 80}, "2022/01/12": {"Evusheld": 624, "Molnupiravir": 300, "Paxlovid": 80}, "2022/01/13": {"Evusheld": 624, "Molnupiravir": 300, "Paxlovid": 80}, "2022/01/14": {"Evusheld": 912, "Molnupiravir": 460, "Paxlovid": 200}, "2022/01/19": {"Evusheld": 984, "Molnupiravir": 760, "Paxlovid": 280}, "2022/01/21": {"Evusheld": 984, "Molnupiravir": 760, "Paxlovid": 280}}, "courses_delivered": {"2022/01/05": {"Evusheld": 416, "Molnupiravir": 80, "Paxlovid": 21}, "2022/01/07": {"Evusheld": 244, "Molnupiravir": 80, "Paxlovid": 21}, "2022/01/10": {"Evusheld": 346, "Molnupiravir": 107, "Paxlovid": 41}, "2022/01/11": {"Evusheld": 158, "Molnupiravir": 49, "Paxlovid": 44}, "2022/01/12": {"Evusheld": 158, "Molnupiravir": 75, "Paxlovid": 48}, "2022/01/13": {"Evusheld": 212, "Molnupiravir": 121, "Paxlovid": 55}, "2022/01/14": {"Evusheld": 464, "Molnupiravir": 348, "Paxlovid": 149}, "2022/01/19": {"Evusheld": 538, "Molnupiravir": 378, "Paxlovid": 127}, "2022/01/21": {"Evusheld": 354, "Molnupiravir": 314, "Paxlovid": 150}}, "courses_available": {"2022/01/05": {"Evusheld": 184, "Molnupiravir": 0, "Paxlovid": 19}, "2022/01/07": {"Evusheld": 92, "Molnupiravir": 0, "Paxlovid": 19}, "2022/01/10": {"Evusheld": 158, "Molnupiravir": 73, "Paxlovid": 19}, "2022/01/11": {"Evusheld": 274, "Molnupiravir": 171, "Paxlovid": 16}, "2022/01/12": {"Evusheld": 274, "Molnupiravir": 225, "Paxlovid": 32}, "2022/01/13": {"Evusheld": 388, "Molnupiravir": 179, "Paxlovid": 25}, "2022/01/14": {"Evusheld": 424, "Molnupiravir": 112, "Paxlovid": 11}, "2022/01/19": {"Evusheld": 446, "Molnupiravir": 222, "Paxlovid": 113}, "2022/01/21": {"Evusheld": 630, "Molnupiravir": 386, "Paxlovid": 130}}, "children": {}, "child_treatments": [], "providers": {"612": {"provider_name": "Uams", "address1": "4301 W. Markham St. Slot 571", "address2": "Pharmacy Stores Stockroom, G1030", "city": "Little Rock", "county": "Pulaski", "state_code": "AR", "zip_code": "72205", "lat": 34.751585, "lng": -92.321037, "order_label": "Molnupiravir"}, "613": {"provider_name": "Chi St. Vincent Infirmary", "address1": "2 St. Vincent Cir", "address2": "Unit Attn. Pharmacy", "city": "Little Rock", "county": "Pulaski", "state_code": "AR", "zip_code": "72205", "lat": 34.750183, "lng": -92.338251, "order_label": "Molnupiravir"}, "614": {"provider_name": "Arkansas Heart Hospital", "address1": "1701 S Shackelford Rd", "address2": null, "city": "Little Rock", "county": "Pulaski", "state_code": "AR", "zip_code": "72211", "lat": 34.73916, "lng": -92.394431, "order_label": "Evusheld"}, "615": {"provider_name": "Remedy Drug", "address1": "8511 W Markham St", "address2": null, "city": "Little Rock", "county": "Pulaski", "state_code": "AR", "zip_code": "72205", "lat": 34.753189, "lng": -92.369328, "order_label": "Molnupiravir"}, "616": {"provider_name": "Tanglewood Drugstore", "address1": "6815 Cantrell Road", "address2": null, "city": "Little Rock", "county": "Pulaski", "state_code": "AR", "zip_code": "72207", "lat": 34.768995, "lng": -92.351932, "order_label": "Molnupiravir"}, "617": {"provider_name": "The Pharmacy At Wellington", "address1": "15400 Chenal Pkwy", "address2": "Suite 100", "city": "Little Rock", "county": "Pulaski", "state_code": "AR", "zip_code": "72211", "lat": 34.756371, "lng": -92.44219, "order_label": "Paxlovid"}, "618": {"provider_name": "Achor Family Pharmacy", "address1": "1900 Club Manor Drive", "address2": "Suite 101", "city": "Maumelle", "county": "Pulaski", "state_code": "AR", "zip_code": "72113", "lat": 34.853392, "lng": -92.404687, "order_label": "Paxlovid"}, "619": {"provider_name": "Kavanaugh Pharmacy", "address1": "5008 Kavanaugh Blvd", "address2": null, "city": "Little Rock", "county": "Pulaski", "state_code": "AR", "zip_code": "72207", "lat": 34.769985, "lng": -92.329951, "order_label": "Molnupiravir"}, "620": {"provider_name": "Market Place Pharmacy Of Little Roc", "address1": "11316 Huron Lane", "address2": null, "city": "Little Rock", "county": "Pulaski", "state_code": "AR", "zip_code": "72211", "lat": 34.766365, "lng": -92.399773, "order_label": "Molnupiravir"}, "621": {"provider_name": "Baptist Health Medical Center - Lr", "address1": "9601 Baptisit Health Dr", "address2": null, "city": "Little Rock", "county": "Pulaski", "state_code": "AR", "zip_code": "72205", "lat": 34.745758, "lng": -92.3813, "order_label": "Molnupiravir"}, "622": {"provider_name": "Walmart Pharmacy #124", "address1": "8801 Baseline Rd", "address2": null, "city": "Little Rock", "county": "Pulaski", "state_code": "AR", "zip_code": "72209", "lat": 34.670098, "lng": -92.376883, "order_label": "Paxlovid"}, "623": {"provider_name": "Premier Pharmacy Care", "address1": "760 Michaela Dr", "address2": null, "city": "North Little Rock", "county": "Pulaski", "state_code": "AR", "zip_code": "72117", "lat": 34.734066, "lng": -92.140372, "order_label": "Paxlovid"}, "624": {"provider_name": "City Pharmacy", "address1": "1801 S Broadway", "address2": null, "city": "Little Rock", "county": "Pulaski", "state_code": "AR", "zip_code": "72206", "lat": 34.731765, "lng": -92.278458, "order_label": "Molnupiravir"}, "625": {"provider_name": "Medicine Man Pharmacy", "address1": "2520 Main St", "address2": null, "city": "North Little Rock", "county": "Pulaski", "state_code": "AR", "zip_code": "72114", "lat": 34.778566, "lng": -92.266771, "order_label": "Molnupiravir"}, "626": {"provider_name": "Cornerstone Pharmacy At Chenal", "address1": "16115 Saint Vincent Way 120", "address2": null, "city": "Little Rock", "county": "Pulaski", "state_code": "AR", "zip_code": "72223", "lat": 34.764471, "lng": -92.455809, "order_label": "Molnupiravir"}, "627": {"provider_name": "Cornerstone Pharmacy-jfk,llc", "address1": "5328 Jfk Blvd", "address2": null, "city": "N Little Rock", "county": "Pulaski", "state_code": "AR", "zip_code": "72116", "lat": 34.8045546, "lng": -92.2524907, "order_label": "Molnupiravir"}, "628": {"provider_name": "Carti Cancer Center", "address1": "8901 Carti Way", "address2": null, "city": "Little Rock", "county": "Pulaski", "state_code": "AR", "zip_code": "72205", "lat": 34.743601, "lng": -92.3678, "order_label": "Evusheld"}, "629": {"provider_name": "Medicine Man Pharmacy Jfk", "address1": "5308 Jfk Blvd", "address2": "Suite 3", "city": "North Little Rock", "county": "Pulaski", "state_code": "AR", "zip_code": "72116", "lat": 34.803548, "lng": -92.253165, "order_label": "Molnupiravir"}}, "treatments": {"612": {"Evusheld": 231, "Paxlovid": 12, "Molnupiravir": 60}, "613": {"Evusheld": 130, "Molnupiravir": 29}, "614": {"Evusheld": 23}, "615": {"Paxlovid": 20, "Molnupiravir": 20}, "616": {"Molnupiravir": 20}, "617": {"Molnupiravir": 20, "Paxlovid": 20}, "618": {"Molnupiravir": 20, "Paxlovid": 20}, "619": {"Paxlovid": 5, "Molnupiravir": 17}, "620": {"Molnupiravir": 20}, "621": {"Paxlovid": 30, "Evusheld": 150, "Molnupiravir": 40}, "622": {"Molnupiravir": 6, "Paxlovid": 1}, "623": {"Molnupiravir": 35, "Paxlovid": 22}, "624": {"Molnupiravir": 20}, "625": {"Molnupiravir": 20}, "626": {"Molnupiravir": 20}, "627": {"Molnupiravir": 20}, "628": {"Evusheld": 96}, "629": {"Molnupiravir": 19}}}