{"path": ["VT"], "total_courses": {"2022/01/05": {"Evusheld": 888, "Molnupiravir": 80, "Paxlovid": 80}, "2022/01/07": {"Evusheld": 312, "Molnupiravir": 440, "Paxlovid": 100}, "2022/01/10": {"Evusheld": 624, "Molnupiravir": 480, "Paxlovid": 120}, "2022/01/11": {"Evusheld": 312, "Molnupiravir": 520, "Paxlovid": 140}}, "courses_delivered": {"2022/01/05": {"Evusheld": 303, "Molnupiravir": 0, "Paxlovid": 15}, "2022/01/07": {"Evusheld": 101, "Molnupiravir": 120, "Paxlovid": 25}, "2022/01/10": {"Evusheld": 210, "Molnupiravir": 120, "Paxlovid": 30}, "2022/01/11": {"Evusheld": 123, "Molnupiravir": 160, "Paxlovid": 47}}, "courses_available": {"2022/01/05": {"Evusheld": 585, "Molnupiravir": 0, "Paxlovid": 65}, "2022/01/07": {"Evusheld": 211, "Molnupiravir": 0, "Paxlovid": 55}, "2022/01/10": {"Evusheld": 414, "Molnupiravir": 0, "Paxlovid": 50}, "2022/01/11": {"Evusheld": 189, "Molnupiravir": 80, "Paxlovid": 53}}, "children": {"Addison": {"Molnupiravir": 0}, "Bennington": {"Evusheld": 41, "Molnupiravir": 0, "Paxlovid": 0}, "Caledonia": {"Evusheld": 48, "Molnupiravir": 0}, "Chittenden": {"Evusheld": 53, "Molnupiravir": 0, "Paxlovid": 0}, "Franklin": {"Molnupiravir": 0, "Paxlovid": 10}, "Lamoille": {"Molnupiravir": 0}, "Orleans": {"Molnupiravir": 0, "Paxlovid": 19}, "Rutland": {"Evusheld": 47, "Molnupiravir": 80, "Paxlovid": 4}, "Washington": {"Molnupiravir": 0, "Paxlovid": 20}}, "child_treatments": ["Evusheld", "Molnupiravir", "Paxlovid"], "providers": {"683": {"provider_name": "Uvm Medical Center (pharmacy)", "address1": "111 Colchester Avenue", "address2": "Inpatient Pharmacy", "city": "Burlington", "county": "Chittenden", "state_code": "VT", "zip_code": "5401", "lat": 44.480715, "lng": -73.19633, "order_label": "Evusheld"}, "684": {"provider_name": "Kinney Drugs Inc. #18", "address1": "164 Swanton Rd.", "address2": null, "city": "St. Albans", "county": "Franklin", "state_code": "VT", "zip_code": "5478", "lat": 44.836007, "lng": -73.080202, "order_label": "Paxlovid"}, "685": {"provider_name": "Nvrh Hospital", "address1": "1315 Hospital Drive", "address2": "Attn-pharmacy", "city": "St Johnsbury", "county": "Caledonia", "state_code": "VT", "zip_code": "5819", "lat": 44.445266, "lng": -72.009665, "order_label": "Evusheld"}, "686": {"provider_name": "Kinney Drugs Inc. #11", "address1": "800 Us Rt 302", "address2": null, "city": "Barre", "county": "Washington", "state_code": "VT", "zip_code": "5641", "lat": 44.221279, "lng": -72.546292, "order_label": "Paxlovid"}, "687": {"provider_name": "Rutland Pharmacy", "address1": "75 Allen Street", "address2": null, "city": "Rutland", "county": "Rutland", "state_code": "VT", "zip_code": "5701", "lat": 43.597613, "lng": -72.962764, "order_label": "Molnupiravir"}, "688": {"provider_name": "Kinney Drugs Inc. #58", "address1": "55 Shattuck Hill Rd.", "address2": null, "city": "Newport", "county": "Orleans", "state_code": "VT", "zip_code": "5855", "lat": 44.951416, "lng": -72.164241, "order_label": "Paxlovid"}, "689": {"provider_name": "Rutland Regional Medical Center", "address1": "160 Allen Street", "address2": "Inpatient Pharmacy", "city": "Rutland", "county": "Rutland", "state_code": "VT", "zip_code": "5701", "lat": 43.59909, "lng": -72.956602, "order_label": "Evusheld"}, "690": {"provider_name": "Southwestern Vermont Medical Center", "address1": "100 Hospital Drive", "address2": null, "city": "Bennington", "county": "Bennington", "state_code": "VT", "zip_code": "5201", "lat": 42.873275, "lng": -73.206861, "order_label": "Evusheld"}}, "treatments": {"683": {"Evusheld": 53}, "684": {"Paxlovid": 10}, "685": {"Evusheld": 48}, "686": {"Paxlovid": 20}, "687": {"Paxlovid": 4, "Molnupiravir": 80}, "688": {"Paxlovid": 19}, "689": {"Evusheld": 47}, "690": {"Evusheld": 41}}}