{"path": ["TX", "Lubbock"], "total_courses": {"2022/01/05": {"Evusheld": 288, "Molnupiravir": 480, "Paxlovid": 180}, "2022/01/07": {"Evusheld": 144, "Molnupiravir": 480, "Paxlovid": 180}, "2022/01/10": {"Evusheld": 288, "Molnupiravir": 480, "Paxlovid": 180}, "2022/01/11": {"Evusheld": 144, "Molnupiravir": 420, "Paxlovid": 180}, "2022/01/12": {"Evusheld": 192, "Molnupiravir": 400, "Paxlovid": 180}, "2022/01/13": {"Evusheld": 192, "Molnupiravir": 440, "Paxlovid": 280}, "2022/01/14": {"Evusheld": 264, "Molnupiravir": 820, "Paxlovid": 260}, "2022/01/19": {"Evusheld": 264, "Molnupiravir": 1180, "Paxlovid": 300}}, "courses_delivered": {"2022/01/05": {"Evusheld": 0, "Molnupiravir": 0, "Paxlovid": 13}, "2022/01/07": {"Evusheld": 0, "Molnupiravir": 0, "Paxlovid": 15}, "2022/01/10": {"Evusheld": 0, "Molnupiravir": 34, "Paxlovid": 121}, "2022/01/11": {"Evusheld": 0, "Molnupiravir": 75, "Paxlovid": 127}, "2022/01/12": {"Evusheld": 48, "Molnupiravir": 93, "Paxlovid": 134}, "2022/01/13": {"Evusheld": 48, "Molnupiravir": 92, "Paxlovid": 202}, "2022/01/14": {"Evusheld": 120, "Molnupiravir": 543, "Paxlovid": 210}, "2022/01/19": {"Evusheld": 147, "Molnupiravir": 570, "Paxlovid": 158}}, "courses_available": {"2022/01/05": {"Evusheld": 288, "Molnupiravir": 140, "Paxlovid": 67}, "2022/01/07": {"Evusheld": 144, "Molnupiravir": 160, "Paxlovid": 65}, "2022/01/10": {"Evusheld": 288, "Molnupiravir": 386, "Paxlovid": 59}, "2022/01/11": {"Evusheld": 144, "Molnupiravir": 345, "Paxlovid": 53}, "2022/01/12": {"Evusheld": 144, "Molnupiravir": 307, "Paxlovid": 46}, "2022/01/13": {"Evusheld": 144, "Molnupiravir": 308, "Paxlovid": 38}, "2022/01/14": {"Evusheld": 144, "Molnupiravir": 237, "Paxlovid": 30}, "2022/01/19": {"Evusheld": 117, "Molnupiravir": 530, "Paxlovid": 82}}, "children": {}, "child_treatments": [], "providers": {"1501": {"provider_name": "Walmart Pharmacy #6898", "address1": "11415 Quaker Avenue", "address2": null, "city": "Lubbock", "county": "Lubbock", "state_code": "TX", "zip_code": "79424", "lat": 33.490571, "lng": -101.904908, "order_label": "Molnupiravir"}, "1502": {"provider_name": "Walmart Pharmacy #945", "address1": "702 W Loop 289", "address2": null, "city": "Lubbock", "county": "Lubbock", "state_code": "TX", "zip_code": "79416", "lat": 33.58834, "lng": -101.936735, "order_label": "Paxlovid"}, "1503": {"provider_name": "United Pharmacy", "address1": "2703 82nd Street", "address2": null, "city": "Lubbock", "county": "Lubbock", "state_code": "TX", "zip_code": "79423", "lat": 33.519782, "lng": -101.875167, "order_label": "Molnupiravir"}, "1504": {"provider_name": "United Pharmacy", "address1": "6313 4th St", "address2": null, "city": "Lubbock", "county": "Lubbock", "state_code": "TX", "zip_code": "79416", "lat": 33.592313, "lng": -101.952362, "order_label": "Molnupiravir"}, "1505": {"provider_name": "Walmart Pharmacy #861", "address1": "4215 S Loop 289", "address2": null, "city": "Lubbock", "county": "Lubbock", "state_code": "TX", "zip_code": "79423", "lat": 33.52959, "lng": -101.903136, "order_label": "Molnupiravir"}, "1506": {"provider_name": "Walgreens Store #04819", "address1": "5206 4th St", "address2": null, "city": "Lubbock", "county": "Lubbock", "state_code": "TX", "zip_code": "79416", "lat": 33.592317, "lng": -101.923332, "order_label": "Molnupiravir"}, "1507": {"provider_name": "Walmart Pharmacy #3826", "address1": "1911 Marsha Sharp Fwy", "address2": null, "city": "Lubbock", "county": "Lubbock", "state_code": "TX", "zip_code": "79415", "lat": 33.592341, "lng": -101.85846, "order_label": "Paxlovid"}, "1508": {"provider_name": "United Pharmacy", "address1": "2630 Parkway Drive", "address2": null, "city": "Lubbock", "county": "Lubbock", "state_code": "TX", "zip_code": "79403", "lat": 33.597599, "lng": -101.808687, "order_label": "Molnupiravir"}, "1509": {"provider_name": "Amigos Pharmacy", "address1": "112 N University Ave", "address2": null, "city": "Lubbock", "county": "Lubbock", "state_code": "TX", "zip_code": "79415", "lat": 33.59915, "lng": -101.870375, "order_label": "Molnupiravir"}, "1510": {"provider_name": "Joe Arrington Cancer Center", "address1": "4101 22nd Pl", "address2": null, "city": "Lubbock", "county": "Lubbock", "state_code": "TX", "zip_code": "79410", "lat": 33.574151, "lng": -101.900795, "order_label": "Evusheld"}, "1511": {"provider_name": "Walmart Pharmacy #4299", "address1": "6315 82nd St", "address2": null, "city": "Lubbock", "county": "Lubbock", "state_code": "TX", "zip_code": "79424", "lat": 33.519767, "lng": -101.955344, "order_label": "Molnupiravir"}, "1512": {"provider_name": "Walmart Pharmacy #5702", "address1": "9809 University Avenue", "address2": null, "city": "Lubbock", "county": "Lubbock", "state_code": "TX", "zip_code": "79423", "lat": 33.50446, "lng": -101.87031, "order_label": "Paxlovid"}, "1513": {"provider_name": "Market Street Pharmacy", "address1": "4205 98th Street", "address2": null, "city": "Lubbock", "county": "Lubbock", "state_code": "TX", "zip_code": "79423", "lat": 33.504486, "lng": -101.903112, "order_label": "Molnupiravir"}}, "treatments": {"1501": {"Molnupiravir": 23}, "1502": {"Molnupiravir": 55, "Paxlovid": 10}, "1503": {"Paxlovid": 20, "Molnupiravir": 19}, "1504": {"Paxlovid": 7, "Molnupiravir": 14}, "1505": {"Molnupiravir": 5}, "1506": {"Molnupiravir": 115}, "1507": {"Molnupiravir": 100, "Paxlovid": 20}, "1508": {"Paxlovid": 6, "Molnupiravir": 20}, "1509": {"Molnupiravir": 20}, "1510": {"Evusheld": 117}, "1511": {"Molnupiravir": 37}, "1512": {"Molnupiravir": 67, "Paxlovid": 19}, "1513": {"Molnupiravir": 55}}}