{"path": ["TX", "Lubbock"], "total_courses": {"2022/01/05": {"Evusheld": 288, "Molnupiravir": 480, "Paxlovid": 180}, "2022/01/07": {"Evusheld": 144, "Molnupiravir": 480, "Paxlovid": 180}, "2022/01/10": {"Evusheld": 288, "Molnupiravir": 480, "Paxlovid": 180}}, "courses_delivered": {"2022/01/05": {"Evusheld": 0, "Molnupiravir": 0, "Paxlovid": 13}, "2022/01/07": {"Evusheld": 0, "Molnupiravir": 0, "Paxlovid": 15}, "2022/01/10": {"Evusheld": 0, "Molnupiravir": 34, "Paxlovid": 121}}, "courses_available": {"2022/01/05": {"Evusheld": 288, "Molnupiravir": 140, "Paxlovid": 67}, "2022/01/07": {"Evusheld": 144, "Molnupiravir": 160, "Paxlovid": 65}, "2022/01/10": {"Evusheld": 288, "Molnupiravir": 386, "Paxlovid": 59}}, "children": {}, "child_treatments": [], "providers": {"626": {"provider_name": "Walmart Pharmacy #3826", "address1": "1911 Marsha Sharp Fwy", "address2": null, "city": "Lubbock", "county": "Lubbock", "state_code": "TX", "zip_code": "79415", "lat": 33.592341, "lng": -101.85846, "order_label": "Molnupiravir"}, "627": {"provider_name": "Market Street Pharmacy", "address1": "4205 98th Street", "address2": null, "city": "Lubbock", "county": "Lubbock", "state_code": "TX", "zip_code": "79423", "lat": 33.504486, "lng": -101.903112, "order_label": "Molnupiravir"}, "628": {"provider_name": "Amigos Pharmacy", "address1": "112 N University Ave", "address2": null, "city": "Lubbock", "county": "Lubbock", "state_code": "TX", "zip_code": "79415", "lat": 33.59915, "lng": -101.870375, "order_label": "Molnupiravir"}, "629": {"provider_name": "Joe Arrington Cancer Center", "address1": "4101 22nd Plac", "address2": null, "city": "Lubbock", "county": "Lubbock", "state_code": "TX", "zip_code": "79410", "lat": 33.574151, "lng": -101.900795, "order_label": "Evusheld"}, "630": {"provider_name": "Walmart Pharmacy #861", "address1": "4215 S Loop 289", "address2": null, "city": "Lubbock", "county": "Lubbock", "state_code": "TX", "zip_code": "79423", "lat": 33.52959, "lng": -101.903136, "order_label": "Molnupiravir"}, "631": {"provider_name": "United Pharmacy", "address1": "6313 4th St", "address2": null, "city": "Lubbock", "county": "Lubbock", "state_code": "TX", "zip_code": "79416", "lat": 33.592313, "lng": -101.952362, "order_label": "Molnupiravir"}, "632": {"provider_name": "United Pharmacy", "address1": "2703 82nd Street", "address2": null, "city": "Lubbock", "county": "Lubbock", "state_code": "TX", "zip_code": "79423", "lat": 33.519782, "lng": -101.875167, "order_label": "Molnupiravir"}, "633": {"provider_name": "Walmart Pharmacy #6898", "address1": "11415 Quaker Avenue", "address2": null, "city": "Lubbock", "county": "Lubbock", "state_code": "TX", "zip_code": "79424", "lat": 33.490571, "lng": -101.904908, "order_label": "Molnupiravir"}, "634": {"provider_name": "United Pharmacy", "address1": "2630 Parkway Drive", "address2": null, "city": "Lubbock", "county": "Lubbock", "state_code": "TX", "zip_code": "79403", "lat": 33.597599, "lng": -101.808687, "order_label": "Paxlovid"}, "635": {"provider_name": "Walmart Pharmacy #945", "address1": "702 W Loop 289", "address2": null, "city": "Lubbock", "county": "Lubbock", "state_code": "TX", "zip_code": "79416", "lat": 33.58834, "lng": -101.936735, "order_label": "Molnupiravir"}, "636": {"provider_name": "United Pharmacy", "address1": "12815 Indiana Ave", "address2": null, "city": "Lubbock", "county": "Lubbock", "state_code": "TX", "zip_code": "79423", "lat": 33.477373, "lng": -101.887632, "order_label": "Molnupiravir"}, "637": {"provider_name": "Walmart Pharmacy #4299", "address1": "6315 82nd St", "address2": null, "city": "Lubbock", "county": "Lubbock", "state_code": "TX", "zip_code": "79424", "lat": 33.519767, "lng": -101.955344, "order_label": "Molnupiravir"}, "638": {"provider_name": "United Pharmacy", "address1": "401 Slide Road", "address2": null, "city": "Lubbock", "county": "Lubbock", "state_code": "TX", "zip_code": "79416", "lat": 33.592319, "lng": -101.922387, "order_label": "Molnupiravir"}, "639": {"provider_name": "Market Street Pharmacy", "address1": "4425 19th Street", "address2": null, "city": "Lubbock", "county": "Lubbock", "state_code": "TX", "zip_code": "79407", "lat": 33.577815, "lng": -101.906062, "order_label": "Paxlovid"}}, "treatments": {"626": {"Molnupiravir": 60}, "627": {"Molnupiravir": 60}, "628": {"Paxlovid": 16, "Molnupiravir": 20}, "629": {"Evusheld": 144}, "630": {"Molnupiravir": 37}, "631": {"Paxlovid": 14, "Molnupiravir": 20}, "632": {"Molnupiravir": 20}, "633": {"Molnupiravir": 37}, "634": {"Paxlovid": 20}, "635": {"Molnupiravir": 52}, "636": {"Molnupiravir": 18}, "637": {"Molnupiravir": 22}, "638": {"Molnupiravir": 20}, "639": {"Molnupiravir": 20, "Paxlovid": 9}}}