{"path": ["TX", "Lubbock"], "total_courses": {"2022/01/05": {"Evusheld": 288, "Molnupiravir": 480, "Paxlovid": 180}, "2022/01/07": {"Evusheld": 144, "Molnupiravir": 480, "Paxlovid": 180}, "2022/01/10": {"Evusheld": 288, "Molnupiravir": 480, "Paxlovid": 180}, "2022/01/11": {"Evusheld": 144, "Molnupiravir": 420, "Paxlovid": 180}, "2022/01/12": {"Evusheld": 192, "Molnupiravir": 400, "Paxlovid": 180}, "2022/01/13": {"Evusheld": 192, "Molnupiravir": 440, "Paxlovid": 280}}, "courses_delivered": {"2022/01/05": {"Evusheld": 0, "Molnupiravir": 0, "Paxlovid": 13}, "2022/01/07": {"Evusheld": 0, "Molnupiravir": 0, "Paxlovid": 15}, "2022/01/10": {"Evusheld": 0, "Molnupiravir": 34, "Paxlovid": 121}, "2022/01/11": {"Evusheld": 0, "Molnupiravir": 75, "Paxlovid": 127}, "2022/01/12": {"Evusheld": 48, "Molnupiravir": 93, "Paxlovid": 134}, "2022/01/13": {"Evusheld": 48, "Molnupiravir": 92, "Paxlovid": 202}}, "courses_available": {"2022/01/05": {"Evusheld": 288, "Molnupiravir": 140, "Paxlovid": 67}, "2022/01/07": {"Evusheld": 144, "Molnupiravir": 160, "Paxlovid": 65}, "2022/01/10": {"Evusheld": 288, "Molnupiravir": 386, "Paxlovid": 59}, "2022/01/11": {"Evusheld": 144, "Molnupiravir": 345, "Paxlovid": 53}, "2022/01/12": {"Evusheld": 144, "Molnupiravir": 307, "Paxlovid": 46}, "2022/01/13": {"Evusheld": 144, "Molnupiravir": 308, "Paxlovid": 38}}, "children": {}, "child_treatments": [], "providers": {"1366": {"provider_name": "United Pharmacy", "address1": "6313 4th St", "address2": null, "city": "Lubbock", "county": "Lubbock", "state_code": "TX", "zip_code": "79416", "lat": 33.592313, "lng": -101.952362, "order_label": "Paxlovid"}, "1367": {"provider_name": "Walmart Pharmacy #3826", "address1": "1911 Marsha Sharp Fwy", "address2": null, "city": "Lubbock", "county": "Lubbock", "state_code": "TX", "zip_code": "79415", "lat": 33.592341, "lng": -101.85846, "order_label": "Paxlovid"}, "1368": {"provider_name": "Market Street Pharmacy", "address1": "4205 98th Street", "address2": null, "city": "Lubbock", "county": "Lubbock", "state_code": "TX", "zip_code": "79423", "lat": 33.504486, "lng": -101.903112, "order_label": "Molnupiravir"}, "1369": {"provider_name": "Walmart Pharmacy #5702", "address1": "9809 University Avenue", "address2": null, "city": "Lubbock", "county": "Lubbock", "state_code": "TX", "zip_code": "79423", "lat": 33.50446, "lng": -101.87031, "order_label": "Molnupiravir"}, "1370": {"provider_name": "Amigos Pharmacy", "address1": "112 N University Ave", "address2": null, "city": "Lubbock", "county": "Lubbock", "state_code": "TX", "zip_code": "79415", "lat": 33.59915, "lng": -101.870375, "order_label": "Molnupiravir"}, "1371": {"provider_name": "United Pharmacy", "address1": "401 Slide Road", "address2": null, "city": "Lubbock", "county": "Lubbock", "state_code": "TX", "zip_code": "79416", "lat": 33.592319, "lng": -101.922387, "order_label": "Molnupiravir"}, "1372": {"provider_name": "United Pharmacy", "address1": "2630 Parkway Drive", "address2": null, "city": "Lubbock", "county": "Lubbock", "state_code": "TX", "zip_code": "79403", "lat": 33.597599, "lng": -101.808687, "order_label": "Paxlovid"}, "1373": {"provider_name": "Market Street Pharmacy", "address1": "4425 19th Street", "address2": null, "city": "Lubbock", "county": "Lubbock", "state_code": "TX", "zip_code": "79407", "lat": 33.577815, "lng": -101.906062, "order_label": "Molnupiravir"}, "1374": {"provider_name": "Walmart Pharmacy #945", "address1": "702 W Loop 289", "address2": null, "city": "Lubbock", "county": "Lubbock", "state_code": "TX", "zip_code": "79416", "lat": 33.58834, "lng": -101.936735, "order_label": "Molnupiravir"}, "1375": {"provider_name": "Joe Arrington Cancer Center", "address1": "4101 22nd Plac", "address2": null, "city": "Lubbock", "county": "Lubbock", "state_code": "TX", "zip_code": "79410", "lat": 33.574151, "lng": -101.900795, "order_label": "Evusheld"}, "1376": {"provider_name": "Walmart Pharmacy #861", "address1": "4215 S Loop 289", "address2": null, "city": "Lubbock", "county": "Lubbock", "state_code": "TX", "zip_code": "79423", "lat": 33.52959, "lng": -101.903136, "order_label": "Molnupiravir"}, "1377": {"provider_name": "Walmart Pharmacy #6898", "address1": "11415 Quaker Avenue", "address2": null, "city": "Lubbock", "county": "Lubbock", "state_code": "TX", "zip_code": "79424", "lat": 33.490571, "lng": -101.904908, "order_label": "Molnupiravir"}}, "treatments": {"1366": {"Paxlovid": 12}, "1367": {"Molnupiravir": 57, "Paxlovid": 1}, "1368": {"Molnupiravir": 60}, "1369": {"Molnupiravir": 34}, "1370": {"Paxlovid": 6, "Molnupiravir": 20}, "1371": {"Molnupiravir": 20}, "1372": {"Paxlovid": 19}, "1373": {"Molnupiravir": 20}, "1374": {"Molnupiravir": 39}, "1375": {"Evusheld": 144}, "1376": {"Molnupiravir": 23}, "1377": {"Molnupiravir": 35}}}