{"path": ["TX", "Lubbock"], "total_courses": {"2022/01/05": {"Evusheld": 288, "Molnupiravir": 480, "Paxlovid": 180}, "2022/01/07": {"Evusheld": 144, "Molnupiravir": 480, "Paxlovid": 180}, "2022/01/10": {"Evusheld": 288, "Molnupiravir": 480, "Paxlovid": 180}, "2022/01/11": {"Evusheld": 144, "Molnupiravir": 420, "Paxlovid": 180}, "2022/01/12": {"Evusheld": 192, "Molnupiravir": 400, "Paxlovid": 180}, "2022/01/13": {"Evusheld": 192, "Molnupiravir": 440, "Paxlovid": 280}, "2022/01/14": {"Evusheld": 264, "Molnupiravir": 820, "Paxlovid": 260}, "2022/01/19": {"Evusheld": 264, "Molnupiravir": 1180, "Paxlovid": 300}, "2022/01/21": {"Evusheld": 264, "Molnupiravir": 1300, "Paxlovid": 340}, "2022/01/24": {"Evusheld": 264, "Molnupiravir": 1300, "Paxlovid": 360}, "2022/01/25": {"Evusheld": 384, "Molnupiravir": 1660, "Paxlovid": 520}}, "courses_delivered": {"2022/01/05": {"Evusheld": 0, "Molnupiravir": 0, "Paxlovid": 13}, "2022/01/07": {"Evusheld": 0, "Molnupiravir": 0, "Paxlovid": 15}, "2022/01/10": {"Evusheld": 0, "Molnupiravir": 34, "Paxlovid": 121}, "2022/01/11": {"Evusheld": 0, "Molnupiravir": 75, "Paxlovid": 127}, "2022/01/12": {"Evusheld": 48, "Molnupiravir": 93, "Paxlovid": 134}, "2022/01/13": {"Evusheld": 48, "Molnupiravir": 92, "Paxlovid": 202}, "2022/01/14": {"Evusheld": 120, "Molnupiravir": 543, "Paxlovid": 210}, "2022/01/19": {"Evusheld": 147, "Molnupiravir": 570, "Paxlovid": 158}, "2022/01/21": {"Evusheld": 27, "Molnupiravir": 513, "Paxlovid": 189}, "2022/01/24": {"Evusheld": 27, "Molnupiravir": 364, "Paxlovid": 214}, "2022/01/25": {"Evusheld": 147, "Molnupiravir": 644, "Paxlovid": 334}}, "courses_available": {"2022/01/05": {"Evusheld": 288, "Molnupiravir": 140, "Paxlovid": 67}, "2022/01/07": {"Evusheld": 144, "Molnupiravir": 160, "Paxlovid": 65}, "2022/01/10": {"Evusheld": 288, "Molnupiravir": 386, "Paxlovid": 59}, "2022/01/11": {"Evusheld": 144, "Molnupiravir": 345, "Paxlovid": 53}, "2022/01/12": {"Evusheld": 144, "Molnupiravir": 307, "Paxlovid": 46}, "2022/01/13": {"Evusheld": 144, "Molnupiravir": 308, "Paxlovid": 38}, "2022/01/14": {"Evusheld": 144, "Molnupiravir": 237, "Paxlovid": 30}, "2022/01/19": {"Evusheld": 117, "Molnupiravir": 530, "Paxlovid": 82}, "2022/01/21": {"Evusheld": 237, "Molnupiravir": 707, "Paxlovid": 91}, "2022/01/24": {"Evusheld": 237, "Molnupiravir": 1251, "Paxlovid": 86}, "2022/01/25": {"Evusheld": 237, "Molnupiravir": 1245, "Paxlovid": 66}}, "children": {}, "child_treatments": [], "providers": {"4299": {"provider_name": "Walgreens Store #04819", "address1": "5206 4th St", "address2": null, "city": "Lubbock", "county": "Lubbock", "state_code": "TX", "zip_code": "79416", "lat": 33.592317, "lng": -101.923332}, "4300": {"provider_name": "United Pharmacy", "address1": "2703 82nd Street", "address2": null, "city": "Lubbock", "county": "Lubbock", "state_code": "TX", "zip_code": "79423", "lat": 33.519782, "lng": -101.875167}, "4301": {"provider_name": "Market Street Pharmacy", "address1": "4205 98th Street", "address2": null, "city": "Lubbock", "county": "Lubbock", "state_code": "TX", "zip_code": "79423", "lat": 33.504486, "lng": -101.903112}, "4302": {"provider_name": "Walmart Pharmacy #3826", "address1": "1911 Marsha Sharp Fwy", "address2": null, "city": "Lubbock", "county": "Lubbock", "state_code": "TX", "zip_code": "79415", "lat": 33.592341, "lng": -101.85846}, "4303": {"provider_name": "Joe Arrington Cancer Center", "address1": "4101 22nd Pl", "address2": null, "city": "Lubbock", "county": "Lubbock", "state_code": "TX", "zip_code": "79410", "lat": 33.574151, "lng": -101.900795}, "4304": {"provider_name": "United Pharmacy", "address1": "401 Slide Road", "address2": null, "city": "Lubbock", "county": "Lubbock", "state_code": "TX", "zip_code": "79416", "lat": 33.592319, "lng": -101.922387}, "4305": {"provider_name": "United Pharmacy", "address1": "12815 Indiana Ave", "address2": null, "city": "Lubbock", "county": "Lubbock", "state_code": "TX", "zip_code": "79423", "lat": 33.477373, "lng": -101.887632}, "4306": {"provider_name": "Market Street Pharmacy", "address1": "4425 19th Street", "address2": null, "city": "Lubbock", "county": "Lubbock", "state_code": "TX", "zip_code": "79407", "lat": 33.577815, "lng": -101.906062}, "4307": {"provider_name": "Amigos Pharmacy", "address1": "112 N University Ave", "address2": null, "city": "Lubbock", "county": "Lubbock", "state_code": "TX", "zip_code": "79415", "lat": 33.59915, "lng": -101.870375}, "4308": {"provider_name": "United Pharmacy", "address1": "2630 Parkway Drive", "address2": null, "city": "Lubbock", "county": "Lubbock", "state_code": "TX", "zip_code": "79403", "lat": 33.597599, "lng": -101.808687}, "4309": {"provider_name": "United Pharmacy", "address1": "6313 4th St", "address2": null, "city": "Lubbock", "county": "Lubbock", "state_code": "TX", "zip_code": "79416", "lat": 33.592313, "lng": -101.952362}, "4310": {"provider_name": "Walmart Pharmacy #6898", "address1": "11415 Quaker Avenue", "address2": null, "city": "Lubbock", "county": "Lubbock", "state_code": "TX", "zip_code": "79424", "lat": 33.490571, "lng": -101.904908}, "4311": {"provider_name": "Walmart Pharmacy #5702", "address1": "9809 University Avenue", "address2": null, "city": "Lubbock", "county": "Lubbock", "state_code": "TX", "zip_code": "79423", "lat": 33.50446, "lng": -101.87031}, "4312": {"provider_name": "Walmart Pharmacy #861", "address1": "4215 S Loop 289", "address2": null, "city": "Lubbock", "county": "Lubbock", "state_code": "TX", "zip_code": "79423", "lat": 33.52959, "lng": -101.903136}, "4313": {"provider_name": "Walmart Pharmacy #4299", "address1": "6315 82nd St", "address2": null, "city": "Lubbock", "county": "Lubbock", "state_code": "TX", "zip_code": "79424", "lat": 33.519767, "lng": -101.955344}, "4314": {"provider_name": "Walmart Pharmacy #945", "address1": "702 W Loop 289", "address2": null, "city": "Lubbock", "county": "Lubbock", "state_code": "TX", "zip_code": "79416", "lat": 33.58834, "lng": -101.936735}}, "treatments": {"4299": {"Molnupiravir": 669}, "4300": {"Molnupiravir": 33, "Paxlovid": 17}, "4301": {"Molnupiravir": 89}, "4302": {"Paxlovid": 9, "Molnupiravir": 94}, "4303": {"Evusheld": 237}, "4304": {"Paxlovid": 17, "Molnupiravir": 39}, "4305": {"Molnupiravir": 39}, "4306": {"Molnupiravir": 37}, "4307": {"Molnupiravir": 20}, "4308": {"Molnupiravir": 20, "Paxlovid": 5}, "4309": {"Paxlovid": 1, "Molnupiravir": 35}, "4310": {"Molnupiravir": 12}, "4311": {"Molnupiravir": 62, "Paxlovid": 17}, "4312": {"Molnupiravir": 32}, "4313": {"Molnupiravir": 18}, "4314": {"Molnupiravir": 46}}}