{"path": ["MA", "Suffolk"], "total_courses": {"2022/01/05": {"Evusheld": 1368, "Molnupiravir": 3240, "Paxlovid": 240}, "2022/01/07": {"Evusheld": 840, "Molnupiravir": 3240, "Paxlovid": 240}, "2022/01/10": {"Evusheld": 1032, "Molnupiravir": 2720, "Paxlovid": 240}, "2022/01/11": {"Evusheld": 1776, "Molnupiravir": 3300, "Paxlovid": 320}, "2022/01/12": {"Evusheld": 1776, "Molnupiravir": 3300, "Paxlovid": 320}, "2022/01/13": {"Evusheld": 1776, "Molnupiravir": 3440, "Paxlovid": 380}}, "courses_delivered": {"2022/01/05": {"Evusheld": 620, "Molnupiravir": 920, "Paxlovid": 0}, "2022/01/07": {"Evusheld": 326, "Molnupiravir": 920, "Paxlovid": 0}, "2022/01/10": {"Evusheld": 389, "Molnupiravir": 940, "Paxlovid": 2}, "2022/01/11": {"Evusheld": 923, "Molnupiravir": 940, "Paxlovid": 2}, "2022/01/12": {"Evusheld": 1051, "Molnupiravir": 1, "Paxlovid": 10}, "2022/01/13": {"Evusheld": 1118, "Molnupiravir": 63, "Paxlovid": 75}}, "courses_available": {"2022/01/05": {"Evusheld": 436, "Molnupiravir": 0, "Paxlovid": 0}, "2022/01/07": {"Evusheld": 418, "Molnupiravir": 0, "Paxlovid": 0}, "2022/01/10": {"Evusheld": 619, "Molnupiravir": 0, "Paxlovid": 18}, "2022/01/11": {"Evusheld": 613, "Molnupiravir": 20, "Paxlovid": 38}, "2022/01/12": {"Evusheld": 581, "Molnupiravir": 1339, "Paxlovid": 90}, "2022/01/13": {"Evusheld": 514, "Molnupiravir": 1317, "Paxlovid": 65}}, "children": {}, "child_treatments": [], "providers": {"2776": {"provider_name": "Massachusetts General Hospital", "address1": "55 Fruit Street", "address2": "Main Campus Pharmacy", "city": "Boston", "county": "Suffolk", "state_code": "MA", "zip_code": "02114", "lat": 42.3624, "lng": -71.068777, "order_label": "Evusheld"}, "2777": {"provider_name": "East Boston Neighborhood Health Cen", "address1": "10 Gove St", "address2": "Attn Pharmacy", "city": "East Boston", "county": "Suffolk", "state_code": "MA", "zip_code": "02128-0000", "lat": 42.372124, "lng": -71.038446, "order_label": "Molnupiravir"}, "2778": {"provider_name": "Fenway Health Ansin Building", "address1": "1340 Boylston Street", "address2": null, "city": "Boston", "county": "Suffolk", "state_code": "MA", "zip_code": "02215", "lat": 42.344367, "lng": -71.098526, "order_label": "Molnupiravir"}, "2779": {"provider_name": "Charles River Community Health Brig", "address1": "495 Western Ave", "address2": "2nd Floor Medical", "city": "Brighton", "county": "Suffolk", "state_code": "MA", "zip_code": "02135", "lat": 42.361793, "lng": -71.144035, "order_label": "Paxlovid"}, "2780": {"provider_name": "Tufts Medical Center", "address1": "25 Harvard St", "address2": "Tufts Pharmacy", "city": "Boston", "county": "Suffolk", "state_code": "MA", "zip_code": "02111-0000", "lat": 42.349892, "lng": -71.062205, "order_label": "Evusheld"}, "2781": {"provider_name": "Childrens Hospital", "address1": "300 Longwood Ave", "address2": "Main Sb Pharmacy", "city": "Boston", "county": "Suffolk", "state_code": "MA", "zip_code": "02115-0000", "lat": 42.337629, "lng": -71.104783, "order_label": "Evusheld"}, "2782": {"provider_name": "Beth Israel Deaconess Medical Cente", "address1": "330 Brookline Avenue", "address2": null, "city": "Boston", "county": "Suffolk", "state_code": "MA", "zip_code": "02215", "lat": 42.340581, "lng": -71.105498, "order_label": "Evusheld"}, "2783": {"provider_name": "Dana Farber Cancer Institute - Adul", "address1": "450 Brookline Ave # Yc537", "address2": null, "city": "Boston", "county": "Suffolk", "state_code": "MA", "zip_code": "02215", "lat": 42.337944, "lng": -71.108326, "order_label": "Evusheld"}, "2784": {"provider_name": "Brigham And Womens Hospital Occupat", "address1": "75 Francis Street", "address2": "Main Campus Pharmacy", "city": "Boston", "county": "Suffolk", "state_code": "MA", "zip_code": "02115", "lat": 42.335954, "lng": -71.107661, "order_label": "Evusheld"}}, "treatments": {"2776": {"Molnupiravir": 920, "Evusheld": 85}, "2777": {"Paxlovid": 5, "Molnupiravir": 19}, "2778": {"Paxlovid": 40, "Molnupiravir": 40}, "2779": {"Molnupiravir": 20, "Paxlovid": 20}, "2780": {"Molnupiravir": 318, "Evusheld": 24}, "2781": {"Evusheld": 114}, "2782": {"Evusheld": 124}, "2783": {"Evusheld": 94}, "2784": {"Evusheld": 73}}}