{"path": ["MA", "Suffolk"], "total_courses": {"2022/01/05": {"Evusheld": 1368, "Molnupiravir": 3240, "Paxlovid": 240}, "2022/01/07": {"Evusheld": 840, "Molnupiravir": 3240, "Paxlovid": 240}, "2022/01/10": {"Evusheld": 1032, "Molnupiravir": 2720, "Paxlovid": 240}, "2022/01/11": {"Evusheld": 1776, "Molnupiravir": 3300, "Paxlovid": 320}, "2022/01/12": {"Evusheld": 1776, "Molnupiravir": 3300, "Paxlovid": 320}, "2022/01/13": {"Evusheld": 1776, "Molnupiravir": 3440, "Paxlovid": 380}, "2022/01/14": {"Evusheld": 2712, "Molnupiravir": 3540, "Paxlovid": 400}, "2022/01/19": {"Evusheld": 2712, "Molnupiravir": 3540, "Paxlovid": 940}, "2022/01/21": {"Evusheld": 2712, "Molnupiravir": 3540, "Paxlovid": 1060}, "2022/01/24": {"Evusheld": 2712, "Molnupiravir": 3540, "Paxlovid": 1060}, "2022/01/25": {"Evusheld": 5760, "Molnupiravir": 6820, "Paxlovid": 1820}}, "courses_delivered": {"2022/01/05": {"Evusheld": 620, "Molnupiravir": 920, "Paxlovid": 0}, "2022/01/07": {"Evusheld": 326, "Molnupiravir": 920, "Paxlovid": 0}, "2022/01/10": {"Evusheld": 389, "Molnupiravir": 940, "Paxlovid": 2}, "2022/01/11": {"Evusheld": 923, "Molnupiravir": 940, "Paxlovid": 2}, "2022/01/12": {"Evusheld": 1051, "Molnupiravir": 1, "Paxlovid": 10}, "2022/01/13": {"Evusheld": 1118, "Molnupiravir": 63, "Paxlovid": 75}, "2022/01/14": {"Evusheld": 1301, "Molnupiravir": 52, "Paxlovid": 59}, "2022/01/19": {"Evusheld": 1396, "Molnupiravir": 23, "Paxlovid": 262}, "2022/01/21": {"Evusheld": 744, "Molnupiravir": 354, "Paxlovid": 165}, "2022/01/24": {"Evusheld": 727, "Molnupiravir": 336, "Paxlovid": 107}, "2022/01/25": {"Evusheld": 3749, "Molnupiravir": 2632, "Paxlovid": 613}}, "courses_available": {"2022/01/05": {"Evusheld": 436, "Molnupiravir": 0, "Paxlovid": 0}, "2022/01/07": {"Evusheld": 418, "Molnupiravir": 0, "Paxlovid": 0}, "2022/01/10": {"Evusheld": 619, "Molnupiravir": 0, "Paxlovid": 18}, "2022/01/11": {"Evusheld": 613, "Molnupiravir": 20, "Paxlovid": 38}, "2022/01/12": {"Evusheld": 581, "Molnupiravir": 1339, "Paxlovid": 90}, "2022/01/13": {"Evusheld": 514, "Molnupiravir": 1317, "Paxlovid": 65}, "2022/01/14": {"Evusheld": 1411, "Molnupiravir": 2288, "Paxlovid": 261}, "2022/01/19": {"Evusheld": 1316, "Molnupiravir": 2407, "Paxlovid": 298}, "2022/01/21": {"Evusheld": 2016, "Molnupiravir": 2168, "Paxlovid": 735}, "2022/01/24": {"Evusheld": 2033, "Molnupiravir": 2186, "Paxlovid": 793}, "2022/01/25": {"Evusheld": 2011, "Molnupiravir": 2170, "Paxlovid": 822}}, "children": {}, "child_treatments": [], "providers": {"3237": {"provider_name": "Beth Israel Deaconess Medical Cente", "address1": "330 Brookline Avenue", "address2": null, "city": "Boston", "county": "Suffolk", "state_code": "MA", "zip_code": "02215", "lat": 42.340581, "lng": -71.105498}, "3238": {"provider_name": "Brigham And Womens Hospital Occupat", "address1": "75 Francis Street", "address2": "Main Campus Pharmacy", "city": "Boston", "county": "Suffolk", "state_code": "MA", "zip_code": "02115", "lat": 42.335954, "lng": -71.107661}, "3239": {"provider_name": "Fenway Health Ansin Building", "address1": "1340 Boylston Street", "address2": null, "city": "Boston", "county": "Suffolk", "state_code": "MA", "zip_code": "02215", "lat": 42.344367, "lng": -71.098526}, "3240": {"provider_name": "Boston Health Care Mcinnis House Cl", "address1": "780 Albany Street", "address2": null, "city": "Boston", "county": "Suffolk", "state_code": "MA", "zip_code": "02118", "lat": 42.333842, "lng": -71.073029}, "3241": {"provider_name": "Massachusetts General Hospital", "address1": "55 Fruit Street", "address2": "Main Campus Pharmacy", "city": "Boston", "county": "Suffolk", "state_code": "MA", "zip_code": "02114", "lat": 42.3624, "lng": -71.068777}, "3242": {"provider_name": "Boston Medical Center Pharmacy Doct", "address1": "850 Harrison Ave 1st Floor", "address2": "Yawkey Pharmacy", "city": "Boston", "county": "Suffolk", "state_code": "MA", "zip_code": "02118", "lat": 42.335174, "lng": -71.074855}, "3243": {"provider_name": "Mattapan Community Health Center", "address1": "1575 Blue Hill Ave", "address2": null, "city": "Mattapan", "county": "Suffolk", "state_code": "MA", "zip_code": "02126", "lat": 42.269992, "lng": -71.093791}, "3244": {"provider_name": "Charles River Community Health Brig", "address1": "495 Western Ave", "address2": "2nd Floor Medical", "city": "Brighton", "county": "Suffolk", "state_code": "MA", "zip_code": "02135", "lat": 42.361793, "lng": -71.144035}, "3245": {"provider_name": "Tufts Medical Center", "address1": "25 Harvard St", "address2": "Tufts Pharmacy", "city": "Boston", "county": "Suffolk", "state_code": "MA", "zip_code": "02111-0000", "lat": 42.349892, "lng": -71.062205}, "3246": {"provider_name": "East Boston Neighborhood Health Cen", "address1": "10 Gove St", "address2": "Attn Pharmacy", "city": "East Boston", "county": "Suffolk", "state_code": "MA", "zip_code": "02128-0000", "lat": 42.372124, "lng": -71.038446}, "3247": {"provider_name": "Uphams Corner Health Ctr", "address1": "415 Columbia Rd", "address2": "Attn: Pharmacy", "city": "Dorchester", "county": "Suffolk", "state_code": "MA", "zip_code": "02125-0000", "lat": 42.312082, "lng": -71.068986}, "3248": {"provider_name": "Steward Saint Elizabeths Medical Ce", "address1": "St. Elizabeths Medical Center", "address2": "736 Cambridge Street", "city": "Brighton", "county": "Suffolk", "state_code": "MA", "zip_code": "02135", "lat": -14.497803, "lng": -81.462049}, "3249": {"provider_name": "Childrens Hospital", "address1": "300 Longwood Ave", "address2": "Main Sb Pharmacy", "city": "Boston", "county": "Suffolk", "state_code": "MA", "zip_code": "02115-0000", "lat": 42.337629, "lng": -71.104783}, "3250": {"provider_name": "Dana Farber Cancer Institute - Adul", "address1": "450 Brookline Ave # Yc537", "address2": null, "city": "Boston", "county": "Suffolk", "state_code": "MA", "zip_code": "02215", "lat": 42.337944, "lng": -71.108326}, "3251": {"provider_name": "South Boston Comm Health Center", "address1": "409 W Broadway", "address2": null, "city": "Boston", "county": "Suffolk", "state_code": "MA", "zip_code": "02127", "lat": 42.336927, "lng": -71.047928}}, "treatments": {"3237": {"Evusheld": 275}, "3238": {"Evusheld": 514}, "3239": {"Paxlovid": 80, "Molnupiravir": 80}, "3240": {"Paxlovid": 20, "Molnupiravir": 98}, "3241": {"Paxlovid": 126, "Molnupiravir": 605, "Evusheld": 421}, "3242": {"Paxlovid": 229, "Molnupiravir": 502, "Evusheld": 210}, "3243": {"Molnupiravir": 20, "Paxlovid": 40}, "3244": {"Molnupiravir": 20, "Paxlovid": 20}, "3245": {"Evusheld": 136, "Molnupiravir": 303, "Paxlovid": 56}, "3246": {"Molnupiravir": 102, "Paxlovid": 95}, "3247": {"Paxlovid": 37, "Molnupiravir": 20}, "3248": {"Paxlovid": 100, "Molnupiravir": 420}, "3249": {"Evusheld": 253}, "3250": {"Evusheld": 202}, "3251": {"Paxlovid": 19}}}