{"path": ["MA", "Suffolk"], "total_courses": {"2022/01/05": {"Evusheld": 1368, "Molnupiravir": 3240, "Paxlovid": 240}, "2022/01/07": {"Evusheld": 840, "Molnupiravir": 3240, "Paxlovid": 240}, "2022/01/10": {"Evusheld": 1032, "Molnupiravir": 2720, "Paxlovid": 240}, "2022/01/11": {"Evusheld": 1776, "Molnupiravir": 3300, "Paxlovid": 320}, "2022/01/12": {"Evusheld": 1776, "Molnupiravir": 3300, "Paxlovid": 320}, "2022/01/13": {"Evusheld": 1776, "Molnupiravir": 3440, "Paxlovid": 380}, "2022/01/14": {"Evusheld": 2712, "Molnupiravir": 3540, "Paxlovid": 400}, "2022/01/19": {"Evusheld": 2712, "Molnupiravir": 3540, "Paxlovid": 940}}, "courses_delivered": {"2022/01/05": {"Evusheld": 620, "Molnupiravir": 920, "Paxlovid": 0}, "2022/01/07": {"Evusheld": 326, "Molnupiravir": 920, "Paxlovid": 0}, "2022/01/10": {"Evusheld": 389, "Molnupiravir": 940, "Paxlovid": 2}, "2022/01/11": {"Evusheld": 923, "Molnupiravir": 940, "Paxlovid": 2}, "2022/01/12": {"Evusheld": 1051, "Molnupiravir": 1, "Paxlovid": 10}, "2022/01/13": {"Evusheld": 1118, "Molnupiravir": 63, "Paxlovid": 75}, "2022/01/14": {"Evusheld": 1301, "Molnupiravir": 52, "Paxlovid": 59}, "2022/01/19": {"Evusheld": 1396, "Molnupiravir": 23, "Paxlovid": 262}}, "courses_available": {"2022/01/05": {"Evusheld": 436, "Molnupiravir": 0, "Paxlovid": 0}, "2022/01/07": {"Evusheld": 418, "Molnupiravir": 0, "Paxlovid": 0}, "2022/01/10": {"Evusheld": 619, "Molnupiravir": 0, "Paxlovid": 18}, "2022/01/11": {"Evusheld": 613, "Molnupiravir": 20, "Paxlovid": 38}, "2022/01/12": {"Evusheld": 581, "Molnupiravir": 1339, "Paxlovid": 90}, "2022/01/13": {"Evusheld": 514, "Molnupiravir": 1317, "Paxlovid": 65}, "2022/01/14": {"Evusheld": 1411, "Molnupiravir": 2288, "Paxlovid": 261}, "2022/01/19": {"Evusheld": 1316, "Molnupiravir": 2407, "Paxlovid": 298}}, "children": {}, "child_treatments": [], "providers": {"237": {"provider_name": "Charles River Community Health Brig", "address1": "495 Western Ave", "address2": "2nd Floor Medical", "city": "Brighton", "county": "Suffolk", "state_code": "MA", "zip_code": "02135", "lat": 42.361793, "lng": -71.144035, "order_label": "Molnupiravir"}, "238": {"provider_name": "Boston Medical Center Pharmacy Doct", "address1": "850 Harrison Ave 1st Floor", "address2": "Yawkey Pharmacy", "city": "Boston", "county": "Suffolk", "state_code": "MA", "zip_code": "02118", "lat": 42.335174, "lng": -71.074855, "order_label": "Paxlovid"}, "239": {"provider_name": "Uphams Corner Health Ctr", "address1": "415 Columbia Rd", "address2": "Attn: Pharmacy", "city": "Dorchester", "county": "Suffolk", "state_code": "MA", "zip_code": "02125-0000", "lat": 42.312082, "lng": -71.068986, "order_label": "Molnupiravir"}, "240": {"provider_name": "Dana Farber Cancer Institute - Adul", "address1": "450 Brookline Ave # Yc537", "address2": null, "city": "Boston", "county": "Suffolk", "state_code": "MA", "zip_code": "02215", "lat": 42.337944, "lng": -71.108326, "order_label": "Evusheld"}, "241": {"provider_name": "Massachusetts General Hospital", "address1": "55 Fruit Street", "address2": "Main Campus Pharmacy", "city": "Boston", "county": "Suffolk", "state_code": "MA", "zip_code": "02114", "lat": 42.3624, "lng": -71.068777, "order_label": "Molnupiravir"}, "242": {"provider_name": "Fenway Health Ansin Building", "address1": "1340 Boylston Street", "address2": null, "city": "Boston", "county": "Suffolk", "state_code": "MA", "zip_code": "02215", "lat": 42.344367, "lng": -71.098526, "order_label": "Paxlovid"}, "243": {"provider_name": "Tufts Medical Center", "address1": "25 Harvard St", "address2": "Tufts Pharmacy", "city": "Boston", "county": "Suffolk", "state_code": "MA", "zip_code": "02111-0000", "lat": 42.349892, "lng": -71.062205, "order_label": "Molnupiravir"}, "244": {"provider_name": "Steward Saint Elizabeths Medical Ce", "address1": "St. Elizabeths Medical Center", "address2": "736 Cambridge Street", "city": "Brighton", "county": "Suffolk", "state_code": "MA", "zip_code": "02135", "lat": 42.3489047, "lng": -71.1480227, "order_label": "Molnupiravir"}, "245": {"provider_name": "Mattapan Community Health Center", "address1": "1575 Blue Hill Ave", "address2": null, "city": "Mattapan", "county": "Suffolk", "state_code": "MA", "zip_code": "02126", "lat": 42.269992, "lng": -71.093791, "order_label": "Molnupiravir"}, "246": {"provider_name": "East Boston Neighborhood Health Cen", "address1": "10 Gove St", "address2": "Attn Pharmacy", "city": "East Boston", "county": "Suffolk", "state_code": "MA", "zip_code": "02128-0000", "lat": 42.372124, "lng": -71.038446, "order_label": "Molnupiravir"}, "247": {"provider_name": "Childrens Hospital", "address1": "300 Longwood Ave", "address2": "Main Sb Pharmacy", "city": "Boston", "county": "Suffolk", "state_code": "MA", "zip_code": "02115-0000", "lat": 42.337629, "lng": -71.104783, "order_label": "Evusheld"}, "248": {"provider_name": "Brigham And Womens Hospital Occupat", "address1": "75 Francis Street", "address2": "Main Campus Pharmacy", "city": "Boston", "county": "Suffolk", "state_code": "MA", "zip_code": "02115", "lat": 42.335954, "lng": -71.107661, "order_label": "Evusheld"}, "249": {"provider_name": "Beth Israel Deaconess Medical Cente", "address1": "330 Brookline Avenue", "address2": null, "city": "Boston", "county": "Suffolk", "state_code": "MA", "zip_code": "02215", "lat": 42.340581, "lng": -71.105498, "order_label": "Evusheld"}}, "treatments": {"237": {"Paxlovid": 20, "Molnupiravir": 20}, "238": {"Evusheld": 144, "Molnupiravir": 518, "Paxlovid": 157}, "239": {"Paxlovid": 20, "Molnupiravir": 20}, "240": {"Evusheld": 143}, "241": {"Evusheld": 251, "Molnupiravir": 908}, "242": {"Molnupiravir": 80, "Paxlovid": 80}, "243": {"Evusheld": 80, "Molnupiravir": 311}, "244": {"Molnupiravir": 420}, "245": {"Paxlovid": 20, "Molnupiravir": 20}, "246": {"Paxlovid": 1, "Molnupiravir": 110}, "247": {"Evusheld": 186}, "248": {"Evusheld": 308}, "249": {"Evusheld": 204}}}