{"path": ["TX", "Hays"], "total_courses": {"2022/01/05": {"Evusheld": 96, "Molnupiravir": 640, "Paxlovid": 80}, "2022/01/07": {"Evusheld": 48, "Molnupiravir": 640, "Paxlovid": 80}, "2022/01/10": {"Evusheld": 96, "Molnupiravir": 640, "Paxlovid": 80}, "2022/01/11": {"Evusheld": 48, "Molnupiravir": 640, "Paxlovid": 80}, "2022/01/12": {"Evusheld": 72, "Molnupiravir": 640, "Paxlovid": 80}, "2022/01/13": {"Evusheld": 72, "Molnupiravir": 640, "Paxlovid": 140}, "2022/01/14": {"Evusheld": 120, "Molnupiravir": 1060, "Paxlovid": 160}, "2022/01/19": {"Evusheld": 120, "Molnupiravir": 1080, "Paxlovid": 160}, "2022/01/21": {"Evusheld": 120, "Molnupiravir": 1080, "Paxlovid": 160}}, "courses_delivered": {"2022/01/05": {"Evusheld": 0, "Molnupiravir": 441, "Paxlovid": 7}, "2022/01/07": {"Evusheld": 0, "Molnupiravir": 441, "Paxlovid": 8}, "2022/01/10": {"Evusheld": 0, "Molnupiravir": 447, "Paxlovid": 48}, "2022/01/11": {"Evusheld": 0, "Molnupiravir": 252, "Paxlovid": 41}, "2022/01/12": {"Evusheld": 0, "Molnupiravir": 259, "Paxlovid": 44}, "2022/01/13": {"Evusheld": 0, "Molnupiravir": 259, "Paxlovid": 111}, "2022/01/14": {"Evusheld": 0, "Molnupiravir": 662, "Paxlovid": 124}, "2022/01/19": {"Evusheld": 0, "Molnupiravir": 380, "Paxlovid": 99}, "2022/01/21": {"Evusheld": 0, "Molnupiravir": 354, "Paxlovid": 114}}, "courses_available": {"2022/01/05": {"Evusheld": 0, "Molnupiravir": 39, "Paxlovid": 33}, "2022/01/07": {"Evusheld": 0, "Molnupiravir": 39, "Paxlovid": 32}, "2022/01/10": {"Evusheld": 0, "Molnupiravir": 93, "Paxlovid": 32}, "2022/01/11": {"Evusheld": 0, "Molnupiravir": 288, "Paxlovid": 39}, "2022/01/12": {"Evusheld": 0, "Molnupiravir": 281, "Paxlovid": 36}, "2022/01/13": {"Evusheld": 0, "Molnupiravir": 361, "Paxlovid": 29}, "2022/01/14": {"Evusheld": 0, "Molnupiravir": 318, "Paxlovid": 36}, "2022/01/19": {"Evusheld": 0, "Molnupiravir": 700, "Paxlovid": 61}, "2022/01/21": {"Evusheld": 0, "Molnupiravir": 726, "Paxlovid": 46}}, "children": {}, "child_treatments": [], "providers": {"1780": {"provider_name": "Heb Pharmacy 611", "address1": "598 E Hwy 290", "address2": null, "city": "Dripping Springs", "county": "Hays", "state_code": "TX", "zip_code": "78620-5482", "lat": 30.191561, "lng": -98.08229, "order_label": "Molnupiravir"}, "1781": {"provider_name": "Walmart Pharmacy #4130", "address1": "5754 Kyle Pkwy", "address2": null, "city": "Kyle", "county": "Hays", "state_code": "TX", "zip_code": "78640", "lat": 30.009963, "lng": -97.856365, "order_label": "Molnupiravir"}, "1782": {"provider_name": "Brookshires Pharmacy 67", "address1": "14100 Ranch Road 12 Unit 2a", "address2": null, "city": "Wimberley", "county": "Hays", "state_code": "TX", "zip_code": "78676", "lat": 29.998905, "lng": -98.100771, "order_label": "Molnupiravir"}, "1783": {"provider_name": "Walgreens Store #12029", "address1": "27495 Ranch Road 12", "address2": null, "city": "Dripping Springs", "county": "Hays", "state_code": "TX", "zip_code": "78620", "lat": 30.191249, "lng": -98.087492, "order_label": "Molnupiravir"}, "1784": {"provider_name": "Dripping Springs Pharmacy", "address1": "100 Commons Road Suite 1", "address2": null, "city": "Dripping Springs", "county": "Hays", "state_code": "TX", "zip_code": "78620", "lat": 30.192301, "lng": -98.084686, "order_label": "Paxlovid"}, "1785": {"provider_name": "Heb Pharmacy 243", "address1": "641 East Hopkins Street", "address2": null, "city": "San Marcos", "county": "Hays", "state_code": "TX", "zip_code": "78666-7055", "lat": 29.885831, "lng": -97.926623, "order_label": "Molnupiravir"}, "1786": {"provider_name": "Walmart Pharmacy #404", "address1": "1015 Highway 80", "address2": null, "city": "San Marcos", "county": "Hays", "state_code": "TX", "zip_code": "78666", "lat": 29.88109, "lng": -97.91391, "order_label": "Molnupiravir"}, "1787": {"provider_name": "Walgreens Store #10841", "address1": "1660 Main St", "address2": null, "city": "Buda", "county": "Hays", "state_code": "TX", "zip_code": "78610", "lat": 30.088848, "lng": -97.822587, "order_label": "Molnupiravir"}, "1788": {"provider_name": "Walmart Pharmacy #4219", "address1": "690 Old San Antonio Rd", "address2": null, "city": "Buda", "county": "Hays", "state_code": "TX", "zip_code": "78610", "lat": 30.084559, "lng": -97.827248, "order_label": "Molnupiravir"}, "1789": {"provider_name": "Heb Pharmacy 477", "address1": "15300 S Ih-35", "address2": null, "city": "Buda", "county": "Hays", "state_code": "TX", "zip_code": "78610-9703", "lat": 30.087289, "lng": -97.820188, "order_label": "Molnupiravir"}}, "treatments": {"1780": {"Molnupiravir": 7}, "1781": {"Molnupiravir": 6}, "1782": {"Molnupiravir": 77}, "1783": {"Paxlovid": 12, "Molnupiravir": 219}, "1784": {"Molnupiravir": 77, "Paxlovid": 17}, "1785": {"Molnupiravir": 21}, "1786": {"Paxlovid": 15, "Molnupiravir": 62}, "1787": {"Paxlovid": 2, "Molnupiravir": 208}, "1788": {"Molnupiravir": 29}, "1789": {"Molnupiravir": 20}}}