{"path": ["TX", "Denton"], "total_courses": {"2022/01/05": {"Evusheld": 24, "Molnupiravir": 280, "Paxlovid": 60}, "2022/01/07": {"Evusheld": 24, "Molnupiravir": 360, "Paxlovid": 100}, "2022/01/10": {"Evusheld": 24, "Molnupiravir": 360, "Paxlovid": 100}, "2022/01/11": {"Evusheld": 24, "Molnupiravir": 360, "Paxlovid": 80}, "2022/01/12": {"Evusheld": 48, "Molnupiravir": 360, "Paxlovid": 80}, "2022/01/13": {"Evusheld": 48, "Molnupiravir": 360, "Paxlovid": 220}, "2022/01/14": {"Evusheld": 72, "Molnupiravir": 880, "Paxlovid": 220}, "2022/01/19": {"Evusheld": 72, "Molnupiravir": 940, "Paxlovid": 220}, "2022/01/21": {"Evusheld": 72, "Molnupiravir": 940, "Paxlovid": 220}}, "courses_delivered": {"2022/01/05": {"Evusheld": 0, "Molnupiravir": 4, "Paxlovid": 22}, "2022/01/07": {"Evusheld": 0, "Molnupiravir": 0, "Paxlovid": 35}, "2022/01/10": {"Evusheld": 0, "Molnupiravir": 20, "Paxlovid": 38}, "2022/01/11": {"Evusheld": 0, "Molnupiravir": 27, "Paxlovid": 20}, "2022/01/12": {"Evusheld": 24, "Molnupiravir": 37, "Paxlovid": 20}, "2022/01/13": {"Evusheld": 24, "Molnupiravir": 46, "Paxlovid": 100}, "2022/01/14": {"Evusheld": 48, "Molnupiravir": 538, "Paxlovid": 145}, "2022/01/19": {"Evusheld": 48, "Molnupiravir": 512, "Paxlovid": 146}, "2022/01/21": {"Evusheld": 48, "Molnupiravir": 233, "Paxlovid": 170}}, "courses_available": {"2022/01/05": {"Evusheld": 0, "Molnupiravir": 36, "Paxlovid": 18}, "2022/01/07": {"Evusheld": 0, "Molnupiravir": 60, "Paxlovid": 5}, "2022/01/10": {"Evusheld": 24, "Molnupiravir": 180, "Paxlovid": 2}, "2022/01/11": {"Evusheld": 24, "Molnupiravir": 173, "Paxlovid": 0}, "2022/01/12": {"Evusheld": 24, "Molnupiravir": 163, "Paxlovid": 0}, "2022/01/13": {"Evusheld": 24, "Molnupiravir": 154, "Paxlovid": 0}, "2022/01/14": {"Evusheld": 24, "Molnupiravir": 202, "Paxlovid": 35}, "2022/01/19": {"Evusheld": 24, "Molnupiravir": 228, "Paxlovid": 34}, "2022/01/21": {"Evusheld": 24, "Molnupiravir": 569, "Paxlovid": 10}}, "children": {}, "child_treatments": [], "providers": {"2009": {"provider_name": "Tom Thumb Pharmacy", "address1": "4112 N Josey Ln", "address2": null, "city": "Carrollton", "county": "Denton", "state_code": "TX", "zip_code": "75007", "lat": 33.023605, "lng": -96.884853, "order_label": "Molnupiravir"}, "2010": {"provider_name": "Brookshires Pharmacy 109 Pilot Poin", "address1": "750 S Highway 377", "address2": null, "city": "Pilot Point", "county": "Denton", "state_code": "TX", "zip_code": "76258", "lat": 33.388657, "lng": -96.952531, "order_label": "Paxlovid"}, "2011": {"provider_name": "Walmart Pharmacy #3198", "address1": "4025 Old Denton Rd", "address2": null, "city": "Carrollton", "county": "Denton", "state_code": "TX", "zip_code": "75007", "lat": 33.018603, "lng": -96.915138, "order_label": "Molnupiravir"}, "2012": {"provider_name": "Walmart Pharmacy #4104", "address1": "3930 Teasley Ln", "address2": null, "city": "Denton", "county": "Denton", "state_code": "TX", "zip_code": "76210", "lat": 33.160467, "lng": -97.105929, "order_label": "Molnupiravir"}, "2013": {"provider_name": "Walmart Pharmacy #5707", "address1": "11700 Us Highway 380", "address2": null, "city": "Aubrey", "county": "Denton", "state_code": "TX", "zip_code": "76227", "lat": 33.225314, "lng": -96.984736, "order_label": "Molnupiravir"}, "2014": {"provider_name": "Aubrey Pharmacy", "address1": "701 S Highway 377", "address2": null, "city": "Aubrey", "county": "Denton", "state_code": "TX", "zip_code": "76227", "lat": 33.29875, "lng": -96.9827, "order_label": "Molnupiravir"}, "2015": {"provider_name": "Kroger Pharmacy 03500586", "address1": "1592 S Loop 288", "address2": null, "city": "Denton", "county": "Denton", "state_code": "TX", "zip_code": "76205", "lat": 33.194006, "lng": -97.094584, "order_label": "Molnupiravir"}, "2016": {"provider_name": "Horizon Medical Center", "address1": "2813 S Mayhill Rd", "address2": "Attn Pharmacy", "city": "Denton", "county": "Denton", "state_code": "TX", "zip_code": "76208", "lat": 33.175894, "lng": -97.088288, "order_label": "Molnupiravir"}, "2017": {"provider_name": "Walmart Pharmacy #467", "address1": "1515 S Loop 288", "address2": null, "city": "Denton", "county": "Denton", "state_code": "TX", "zip_code": "76205", "lat": 33.193774, "lng": -97.094594, "order_label": "Molnupiravir"}, "2018": {"provider_name": "Walgreens Store #11515", "address1": "5000 Teasley Ln", "address2": null, "city": "Denton", "county": "Denton", "state_code": "TX", "zip_code": "76210", "lat": 33.146559, "lng": -97.105248, "order_label": "Molnupiravir"}, "2019": {"provider_name": "Walmart Pharmacy #217", "address1": "801 W Main St", "address2": null, "city": "Lewisville", "county": "Denton", "state_code": "TX", "zip_code": "75067", "lat": 33.045909, "lng": -97.011837, "order_label": "Molnupiravir"}, "2020": {"provider_name": "Texas Oncology Pharmacy-denton", "address1": "2600 Scripture St", "address2": null, "city": "Denton", "county": "Denton", "state_code": "TX", "zip_code": "76201", "lat": 33.219108, "lng": -97.16666, "order_label": "Evusheld"}, "2021": {"provider_name": "Kroger Pharmacy 03500456", "address1": "2709 Cross Timbers Rd", "address2": "Ste A", "city": "Flower Mound", "county": "Denton", "state_code": "TX", "zip_code": "75028", "lat": 33.036248, "lng": -97.071996, "order_label": "Molnupiravir"}, "2022": {"provider_name": "Walmart Pharmacy #5092", "address1": "190 E Fm 3040", "address2": null, "city": "Lewisville", "county": "Denton", "state_code": "TX", "zip_code": "75067", "lat": 33.003462, "lng": -96.990716, "order_label": "Molnupiravir"}, "2023": {"provider_name": "Walmart Pharmacy #4627", "address1": "2750 W University Dr", "address2": null, "city": "Denton", "county": "Denton", "state_code": "TX", "zip_code": "76201", "lat": 33.229933, "lng": -97.167246, "order_label": "Molnupiravir"}}, "treatments": {"2009": {"Molnupiravir": 42}, "2010": {"Molnupiravir": 34, "Paxlovid": 6}, "2011": {"Molnupiravir": 17}, "2012": {"Molnupiravir": 36}, "2013": {"Molnupiravir": 33}, "2014": {"Molnupiravir": 17}, "2015": {"Paxlovid": 4, "Molnupiravir": 52}, "2016": {"Molnupiravir": 20}, "2017": {"Molnupiravir": 38}, "2018": {"Molnupiravir": 178}, "2019": {"Molnupiravir": 43}, "2020": {"Evusheld": 24}, "2021": {"Molnupiravir": 32}, "2022": {"Molnupiravir": 25}, "2023": {"Molnupiravir": 2}}}