{"path": ["TX", "Galveston"], "total_courses": {"2022/01/05": {"Evusheld": 480, "Molnupiravir": 160, "Paxlovid": 60}, "2022/01/07": {"Evusheld": 240, "Molnupiravir": 160, "Paxlovid": 60}, "2022/01/10": {"Evusheld": 480, "Molnupiravir": 160, "Paxlovid": 60}}, "courses_delivered": {"2022/01/05": {"Evusheld": 0, "Molnupiravir": 2, "Paxlovid": 1}, "2022/01/07": {"Evusheld": 0, "Molnupiravir": 2, "Paxlovid": 3}, "2022/01/10": {"Evusheld": 0, "Molnupiravir": 12, "Paxlovid": 15}}, "courses_available": {"2022/01/05": {"Evusheld": 96, "Molnupiravir": 78, "Paxlovid": 39}, "2022/01/07": {"Evusheld": 48, "Molnupiravir": 78, "Paxlovid": 37}, "2022/01/10": {"Evusheld": 96, "Molnupiravir": 148, "Paxlovid": 45}}, "children": {}, "child_treatments": [], "providers": {"201": {"provider_name": "Walmart Pharmacy #4618", "address1": "2625 W Main St", "address2": null, "city": "League City", "county": "Galveston", "state_code": "TX", "zip_code": "77573", "lat": 29.500512, "lng": -95.12565, "order_label": "Molnupiravir"}, "202": {"provider_name": "Walmart Pharmacy #529", "address1": "6410 Interstate 45", "address2": null, "city": "La Marque", "county": "Galveston", "state_code": "TX", "zip_code": "77568", "lat": 29.402364, "lng": -95.0371, "order_label": "Molnupiravir"}, "203": {"provider_name": "Hca Houston Healthcare Mainland", "address1": "6801 Emmett F Lowry Expy", "address2": null, "city": "Texas City", "county": "Galveston", "state_code": "TX", "zip_code": "77591", "lat": 29.395307, "lng": -94.987076, "order_label": "Evusheld"}, "204": {"provider_name": "Randalls Pharmacy", "address1": "2931 Central City Blvd", "address2": null, "city": "Galveston", "county": "Galveston", "state_code": "TX", "zip_code": "77551", "lat": 29.269164, "lng": -94.829705, "order_label": "Molnupiravir"}, "205": {"provider_name": "Randalls Pharmacy", "address1": "2951 Marina Bay Dr", "address2": null, "city": "League City", "county": "Galveston", "state_code": "TX", "zip_code": "77573", "lat": 29.53988, "lng": -95.064021, "order_label": "Paxlovid"}, "206": {"provider_name": "Walmart Pharmacy #504", "address1": "6702 Seawall Blvd", "address2": null, "city": "Galveston", "county": "Galveston", "state_code": "TX", "zip_code": "77551", "lat": 29.262913, "lng": -94.83279, "order_label": "Molnupiravir"}, "207": {"provider_name": "Walmart Pharmacy #3298", "address1": "255 Fm 518 Rd", "address2": null, "city": "Kemah", "county": "Galveston", "state_code": "TX", "zip_code": "77565", "lat": 29.53652, "lng": -95.020254, "order_label": "Molnupiravir"}, "208": {"provider_name": "Heb Pharmacy 28", "address1": "2955 South Gulf Freeway", "address2": null, "city": "League City", "county": "Galveston", "state_code": "TX", "zip_code": "77573-6750", "lat": 29.467965, "lng": -95.092795, "order_label": "Molnupiravir"}, "209": {"provider_name": "Heb Pharmacy 662", "address1": "3502 Palmer Highway", "address2": null, "city": "Texas City", "county": "Galveston", "state_code": "TX", "zip_code": "77590-6548", "lat": 29.39541, "lng": -94.949606, "order_label": "Molnupiravir"}}, "treatments": {"201": {"Molnupiravir": 20}, "202": {"Paxlovid": 9, "Molnupiravir": 18}, "203": {"Evusheld": 48}, "204": {"Paxlovid": 20, "Molnupiravir": 20}, "205": {"Molnupiravir": 20, "Paxlovid": 16}, "206": {"Molnupiravir": 11}, "207": {"Molnupiravir": 20}, "208": {"Molnupiravir": 19}, "209": {"Molnupiravir": 20}}}