{"path": ["NC", "Wake"], "total_courses": {"2022/01/05": {"Evusheld": 24, "Molnupiravir": 780, "Paxlovid": 140}, "2022/01/07": {"Evusheld": 24, "Molnupiravir": 780, "Paxlovid": 140}, "2022/01/10": {"Evusheld": 24, "Molnupiravir": 780, "Paxlovid": 140}, "2022/01/11": {"Evusheld": 24, "Molnupiravir": 780, "Paxlovid": 140}, "2022/01/12": {"Evusheld": 24, "Molnupiravir": 780, "Paxlovid": 140}, "2022/01/13": {"Evusheld": 48, "Molnupiravir": 1100, "Paxlovid": 360}, "2022/01/14": {"Evusheld": 48, "Molnupiravir": 1180, "Paxlovid": 400}, "2022/01/19": {"Evusheld": 72, "Molnupiravir": 1460, "Paxlovid": 420}, "2022/01/21": {"Evusheld": 120, "Molnupiravir": 1460, "Paxlovid": 420}, "2022/01/24": {"Evusheld": 144, "Molnupiravir": 1460, "Paxlovid": 420}, "2022/01/25": {"Evusheld": 192, "Molnupiravir": 2360, "Paxlovid": 700}}, "courses_delivered": {"2022/01/05": {"Evusheld": 0, "Molnupiravir": 161, "Paxlovid": 29}, "2022/01/07": {"Evusheld": 0, "Molnupiravir": 162, "Paxlovid": 34}, "2022/01/10": {"Evusheld": 0, "Molnupiravir": 291, "Paxlovid": 43}, "2022/01/11": {"Evusheld": 0, "Molnupiravir": 187, "Paxlovid": 60}, "2022/01/12": {"Evusheld": 0, "Molnupiravir": 195, "Paxlovid": 62}, "2022/01/13": {"Evusheld": 0, "Molnupiravir": 310, "Paxlovid": 265}, "2022/01/14": {"Evusheld": 0, "Molnupiravir": 175, "Paxlovid": 272}, "2022/01/19": {"Evusheld": 2, "Molnupiravir": 337, "Paxlovid": 100}, "2022/01/21": {"Evusheld": 3, "Molnupiravir": 293, "Paxlovid": 148}, "2022/01/24": {"Evusheld": 27, "Molnupiravir": 238, "Paxlovid": 181}, "2022/01/25": {"Evusheld": 51, "Molnupiravir": 803, "Paxlovid": 466}}, "courses_available": {"2022/01/05": {"Evusheld": 0, "Molnupiravir": 119, "Paxlovid": 31}, "2022/01/07": {"Evusheld": 0, "Molnupiravir": 118, "Paxlovid": 26}, "2022/01/10": {"Evusheld": 0, "Molnupiravir": 149, "Paxlovid": 37}, "2022/01/11": {"Evusheld": 0, "Molnupiravir": 293, "Paxlovid": 20}, "2022/01/12": {"Evusheld": 0, "Molnupiravir": 305, "Paxlovid": 18}, "2022/01/13": {"Evusheld": 0, "Molnupiravir": 470, "Paxlovid": 15}, "2022/01/14": {"Evusheld": 0, "Molnupiravir": 750, "Paxlovid": 8}, "2022/01/19": {"Evusheld": 22, "Molnupiravir": 840, "Paxlovid": 220}, "2022/01/21": {"Evusheld": 45, "Molnupiravir": 890, "Paxlovid": 232}, "2022/01/24": {"Evusheld": 45, "Molnupiravir": 944, "Paxlovid": 199}, "2022/01/25": {"Evusheld": 45, "Molnupiravir": 932, "Paxlovid": 194}}, "children": {}, "child_treatments": [], "providers": {"238": {"provider_name": "Raleigh Medical Group", "address1": "3521 Haworth Dr.", "address2": "2nd Floor", "city": "Raleigh", "county": "Wake", "state_code": "NC", "zip_code": "27609", "lat": 35.829225, "lng": -78.633691}, "239": {"provider_name": "Health Park Pharmacy", "address1": "8300 Health Park Ste 227", "address2": null, "city": "Raleigh", "county": "Wake", "state_code": "NC", "zip_code": "27615", "lat": 35.895995, "lng": -78.659654}, "240": {"provider_name": "The Plaza Pharmacist At Duke Raleig", "address1": "3400 Wake Forest Road", "address2": null, "city": "Raleigh", "county": "Wake", "state_code": "NC", "zip_code": "27609", "lat": 35.828994, "lng": -78.61952}, "241": {"provider_name": "White Dove Pharmacy", "address1": "2751 Nc Hwy 55", "address2": null, "city": "Cary", "county": "Wake", "state_code": "NC", "zip_code": "27519", "lat": 35.785577, "lng": -78.871107}, "242": {"provider_name": "Adhererx Pharmacy North Carolina", "address1": "118 Mackenan Drive Suite 200", "address2": null, "city": "Cary", "county": "Wake", "state_code": "NC", "zip_code": "27511", "lat": 35.732708, "lng": -78.807124}, "243": {"provider_name": "Unc Pharmacy At Panther Creek", "address1": "6715 Mccrimmon Parkway", "address2": "Suite 202", "city": "Cary", "county": "Wake", "state_code": "NC", "zip_code": "27519", "lat": 35.829806, "lng": -78.879246}, "244": {"provider_name": "Wake County Hhs Pharmacy", "address1": "10 Sunnybrook Road", "address2": "Room 107", "city": "Raleigh", "county": "Wake", "state_code": "NC", "zip_code": "27610", "lat": 35.786707, "lng": -78.586359}, "245": {"provider_name": "White Oak Pharmacy Llc", "address1": "501 Health Park Drive", "address2": "Suite 170", "city": "Garner", "county": "Wake", "state_code": "NC", "zip_code": "27529", "lat": 35.685197, "lng": -78.576561}, "246": {"provider_name": "Garner 5th Avenue Pharmacy", "address1": "1315 Fifth Avenue", "address2": null, "city": "Garner", "county": "Wake", "state_code": "NC", "zip_code": "27529", "lat": 35.709031, "lng": -78.621667}, "247": {"provider_name": "Wakemed Outpatient Pharmacy", "address1": "3000 New Bern Ave", "address2": "Wakemed Outpatient Pharmacy", "city": "Raleigh", "county": "Wake", "state_code": "NC", "zip_code": "27610", "lat": 35.786067, "lng": -78.589144}, "248": {"provider_name": "Amber Pharmacy", "address1": "629 Davis Drive", "address2": "Suite 100", "city": "Morrisville", "county": "Wake", "state_code": "NC", "zip_code": "27560", "lat": 35.871661, "lng": -78.863625}, "249": {"provider_name": "Apex Pharmacy", "address1": "904 W Williams St", "address2": null, "city": "Apex", "county": "Wake", "state_code": "NC", "zip_code": "27502", "lat": 35.73981, "lng": -78.866577}}, "treatments": {"238": {"Molnupiravir": 39, "Paxlovid": 17}, "239": {"Paxlovid": 24, "Molnupiravir": 71}, "240": {"Molnupiravir": 97, "Paxlovid": 61}, "241": {"Paxlovid": 20, "Molnupiravir": 80}, "242": {"Molnupiravir": 40, "Paxlovid": 18, "Evusheld": 21}, "243": {"Molnupiravir": 44, "Paxlovid": 17}, "244": {"Paxlovid": 20}, "245": {"Paxlovid": 17, "Molnupiravir": 26}, "246": {"Molnupiravir": 40}, "247": {"Molnupiravir": 415}, "248": {"Evusheld": 24}, "249": {"Molnupiravir": 80}}}