{"path": ["NC", "Wake"], "total_courses": {"2022/01/05": {"Evusheld": 24, "Molnupiravir": 780, "Paxlovid": 140}, "2022/01/07": {"Evusheld": 24, "Molnupiravir": 780, "Paxlovid": 140}, "2022/01/10": {"Evusheld": 24, "Molnupiravir": 780, "Paxlovid": 140}, "2022/01/11": {"Evusheld": 24, "Molnupiravir": 780, "Paxlovid": 140}}, "courses_delivered": {"2022/01/05": {"Evusheld": 0, "Molnupiravir": 161, "Paxlovid": 29}, "2022/01/07": {"Evusheld": 0, "Molnupiravir": 162, "Paxlovid": 34}, "2022/01/10": {"Evusheld": 0, "Molnupiravir": 291, "Paxlovid": 43}, "2022/01/11": {"Evusheld": 0, "Molnupiravir": 187, "Paxlovid": 60}}, "courses_available": {"2022/01/05": {"Evusheld": 0, "Molnupiravir": 119, "Paxlovid": 31}, "2022/01/07": {"Evusheld": 0, "Molnupiravir": 118, "Paxlovid": 26}, "2022/01/10": {"Evusheld": 0, "Molnupiravir": 149, "Paxlovid": 37}, "2022/01/11": {"Evusheld": 0, "Molnupiravir": 293, "Paxlovid": 20}}, "children": {}, "child_treatments": [], "providers": {"2091": {"provider_name": "Unc Pharmacy At Panther Creek", "address1": "6715 Mccrimmon Parkway", "address2": "Suite 202", "city": "Cary", "county": "Wake", "state_code": "NC", "zip_code": "27519", "lat": 35.829806, "lng": -78.879246, "order_label": "Molnupiravir"}, "2092": {"provider_name": "The Plaza Pharmacist At Duke Raleig", "address1": "3400 Wake Forest Road", "address2": null, "city": "Raleigh", "county": "Wake", "state_code": "NC", "zip_code": "27609", "lat": 35.828994, "lng": -78.61952, "order_label": "Molnupiravir"}, "2093": {"provider_name": "Wakemed Outpatient Pharmacy", "address1": "3000 New Bern Ave", "address2": "Wakemed Outpatient Pharmacy", "city": "Raleigh", "county": "Wake", "state_code": "NC", "zip_code": "27610", "lat": 35.786067, "lng": -78.589144, "order_label": "Molnupiravir"}, "2094": {"provider_name": "Health Park Pharmacy", "address1": "8300 Health Park Ste 227", "address2": null, "city": "Raleigh", "county": "Wake", "state_code": "NC", "zip_code": "27615", "lat": 35.895995, "lng": -78.659654, "order_label": "Molnupiravir"}, "2095": {"provider_name": "White Oak Pharmacy Llc", "address1": "501 Health Park Drive", "address2": "Suite 170", "city": "Garner", "county": "Wake", "state_code": "NC", "zip_code": "27529", "lat": 35.685197, "lng": -78.576561, "order_label": "Molnupiravir"}}, "treatments": {"2091": {"Paxlovid": 11, "Molnupiravir": 40}, "2092": {"Paxlovid": 9, "Molnupiravir": 35}, "2093": {"Molnupiravir": 76}, "2094": {"Molnupiravir": 102}, "2095": {"Molnupiravir": 40}}}