{"path": ["NC", "Wake"], "total_courses": {"2022/01/05": {"Evusheld": 24, "Molnupiravir": 780, "Paxlovid": 140}, "2022/01/07": {"Evusheld": 24, "Molnupiravir": 780, "Paxlovid": 140}, "2022/01/10": {"Evusheld": 24, "Molnupiravir": 780, "Paxlovid": 140}, "2022/01/11": {"Evusheld": 24, "Molnupiravir": 780, "Paxlovid": 140}, "2022/01/12": {"Evusheld": 24, "Molnupiravir": 780, "Paxlovid": 140}, "2022/01/13": {"Evusheld": 48, "Molnupiravir": 1100, "Paxlovid": 360}}, "courses_delivered": {"2022/01/05": {"Evusheld": 0, "Molnupiravir": 161, "Paxlovid": 29}, "2022/01/07": {"Evusheld": 0, "Molnupiravir": 162, "Paxlovid": 34}, "2022/01/10": {"Evusheld": 0, "Molnupiravir": 291, "Paxlovid": 43}, "2022/01/11": {"Evusheld": 0, "Molnupiravir": 187, "Paxlovid": 60}, "2022/01/12": {"Evusheld": 0, "Molnupiravir": 195, "Paxlovid": 62}, "2022/01/13": {"Evusheld": 0, "Molnupiravir": 310, "Paxlovid": 265}}, "courses_available": {"2022/01/05": {"Evusheld": 0, "Molnupiravir": 119, "Paxlovid": 31}, "2022/01/07": {"Evusheld": 0, "Molnupiravir": 118, "Paxlovid": 26}, "2022/01/10": {"Evusheld": 0, "Molnupiravir": 149, "Paxlovid": 37}, "2022/01/11": {"Evusheld": 0, "Molnupiravir": 293, "Paxlovid": 20}, "2022/01/12": {"Evusheld": 0, "Molnupiravir": 305, "Paxlovid": 18}, "2022/01/13": {"Evusheld": 0, "Molnupiravir": 470, "Paxlovid": 15}}, "children": {}, "child_treatments": [], "providers": {"2377": {"provider_name": "Unc Pharmacy At Panther Creek", "address1": "6715 Mccrimmon Parkway", "address2": "Suite 202", "city": "Cary", "county": "Wake", "state_code": "NC", "zip_code": "27519", "lat": 35.829806, "lng": -78.879246, "order_label": "Molnupiravir"}, "2378": {"provider_name": "White Dove Pharmacy", "address1": "2751 Nc Hwy 55", "address2": null, "city": "Cary", "county": "Wake", "state_code": "NC", "zip_code": "27519", "lat": 35.785577, "lng": -78.871107, "order_label": "Molnupiravir"}, "2379": {"provider_name": "Wakemed Raleigh Campus Pharmacy", "address1": "3000 Newbern Ave", "address2": null, "city": "Raleigh", "county": "Wake", "state_code": "NC", "zip_code": "27610", "lat": 35.786067, "lng": -78.589144, "order_label": "Molnupiravir"}, "2380": {"provider_name": "White Oak Pharmacy Llc", "address1": "501 Health Park Drive", "address2": "Suite 170", "city": "Garner", "county": "Wake", "state_code": "NC", "zip_code": "27529", "lat": 35.685197, "lng": -78.576561, "order_label": "Molnupiravir"}, "2381": {"provider_name": "The Plaza Pharmacist At Duke Raleig", "address1": "3400 Wake Forest Road", "address2": null, "city": "Raleigh", "county": "Wake", "state_code": "NC", "zip_code": "27609", "lat": 35.828994, "lng": -78.61952, "order_label": "Paxlovid"}, "2382": {"provider_name": "Wakemed Outpatient Pharmacy", "address1": "3000 New Bern Ave", "address2": "Wakemed Outpatient Pharmacy", "city": "Raleigh", "county": "Wake", "state_code": "NC", "zip_code": "27610", "lat": 35.786067, "lng": -78.589144, "order_label": "Molnupiravir"}, "2383": {"provider_name": "Health Park Pharmacy", "address1": "8300 Health Park Ste 227", "address2": null, "city": "Raleigh", "county": "Wake", "state_code": "NC", "zip_code": "27615", "lat": 35.895995, "lng": -78.659654, "order_label": "Molnupiravir"}}, "treatments": {"2377": {"Paxlovid": 7, "Molnupiravir": 40}, "2378": {"Molnupiravir": 20}, "2379": {"Molnupiravir": 8}, "2380": {"Molnupiravir": 40}, "2381": {"Molnupiravir": 35, "Paxlovid": 8}, "2382": {"Molnupiravir": 233}, "2383": {"Molnupiravir": 94}}}