{"path": ["CA", "San Bernardino"], "total_courses": {"2022/01/05": {"Evusheld": 864, "Molnupiravir": 1980, "Paxlovid": 380}, "2022/01/07": {"Evusheld": 504, "Molnupiravir": 2040, "Paxlovid": 400}, "2022/01/10": {"Evusheld": 840, "Molnupiravir": 2040, "Paxlovid": 400}, "2022/01/11": {"Evusheld": 744, "Molnupiravir": 2040, "Paxlovid": 400}, "2022/01/12": {"Evusheld": 1032, "Molnupiravir": 2100, "Paxlovid": 420}, "2022/01/13": {"Evusheld": 1032, "Molnupiravir": 2140, "Paxlovid": 440}, "2022/01/14": {"Evusheld": 1032, "Molnupiravir": 2580, "Paxlovid": 540}, "2022/01/19": {"Evusheld": 1224, "Molnupiravir": 3700, "Paxlovid": 820}, "2022/01/21": {"Evusheld": 1320, "Molnupiravir": 4040, "Paxlovid": 900}, "2022/01/24": {"Evusheld": 1320, "Molnupiravir": 4040, "Paxlovid": 900}, "2022/01/25": {"Evusheld": 2448, "Molnupiravir": 5920, "Paxlovid": 1480}}, "courses_delivered": {"2022/01/05": {"Evusheld": 624, "Molnupiravir": 60, "Paxlovid": 46}, "2022/01/07": {"Evusheld": 312, "Molnupiravir": 60, "Paxlovid": 55}, "2022/01/10": {"Evusheld": 624, "Molnupiravir": 63, "Paxlovid": 51}, "2022/01/11": {"Evusheld": 216, "Molnupiravir": 69, "Paxlovid": 93}, "2022/01/12": {"Evusheld": 408, "Molnupiravir": 73, "Paxlovid": 121}, "2022/01/13": {"Evusheld": 408, "Molnupiravir": 75, "Paxlovid": 143}, "2022/01/14": {"Evusheld": 265, "Molnupiravir": 543, "Paxlovid": 183}, "2022/01/19": {"Evusheld": 361, "Molnupiravir": 1622, "Paxlovid": 362}, "2022/01/21": {"Evusheld": 280, "Molnupiravir": 594, "Paxlovid": 275}, "2022/01/24": {"Evusheld": 280, "Molnupiravir": 461, "Paxlovid": 282}, "2022/01/25": {"Evusheld": 1073, "Molnupiravir": 2081, "Paxlovid": 767}}, "courses_available": {"2022/01/05": {"Evusheld": 240, "Molnupiravir": 520, "Paxlovid": 234}, "2022/01/07": {"Evusheld": 120, "Molnupiravir": 1160, "Paxlovid": 225}, "2022/01/10": {"Evusheld": 144, "Molnupiravir": 1437, "Paxlovid": 274}, "2022/01/11": {"Evusheld": 360, "Molnupiravir": 1771, "Paxlovid": 252}, "2022/01/12": {"Evusheld": 432, "Molnupiravir": 1827, "Paxlovid": 244}, "2022/01/13": {"Evusheld": 432, "Molnupiravir": 1847, "Paxlovid": 217}, "2022/01/14": {"Evusheld": 575, "Molnupiravir": 1899, "Paxlovid": 237}, "2022/01/19": {"Evusheld": 575, "Molnupiravir": 1940, "Paxlovid": 338}, "2022/01/21": {"Evusheld": 680, "Molnupiravir": 3308, "Paxlovid": 566}, "2022/01/24": {"Evusheld": 680, "Molnupiravir": 3441, "Paxlovid": 559}, "2022/01/25": {"Evusheld": 847, "Molnupiravir": 3419, "Paxlovid": 553}}, "children": {}, "child_treatments": [], "providers": {"429": {"provider_name": "Cvs Store #09341", "address1": "1540 E Highland Ave", "address2": "Cvs Pharmacy", "city": "San Bernardino", "county": "San Bernardino", "state_code": "CA", "zip_code": "92404", "lat": 34.135855, "lng": -117.25355}, "430": {"provider_name": "Cvs Store #11035", "address1": "16049 Baseline Avenue #1", "address2": "Cvs Pharmacy", "city": "Fontana", "county": "San Bernardino", "state_code": "CA", "zip_code": "92336", "lat": 34.121323, "lng": -117.454774}, "431": {"provider_name": "Department Of State Hospitals - Pat", "address1": "3102 E. Highland Ave.", "address2": null, "city": "Patton", "county": "San Bernardino", "state_code": "CA", "zip_code": "92369", "lat": 34.135867, "lng": -117.219827}, "432": {"provider_name": "St Mary Health Center-apple Valley", "address1": "18077 Ca-18 Suite 100", "address2": null, "city": "Apple Valley", "county": "San Bernardino", "state_code": "CA", "zip_code": "92307", "lat": 34.54035, "lng": -117.269706}, "433": {"provider_name": "San Antonio Regional Hospital", "address1": "999 San Bernardino Rd.", "address2": null, "city": "Upland", "county": "San Bernardino", "state_code": "CA", "zip_code": "91786", "lat": 34.101004, "lng": -117.637034}, "434": {"provider_name": "Community Hospital Of San Bernardin", "address1": "1805 Medical Center Dr", "address2": null, "city": "San Bernardino", "county": "San Bernardino", "state_code": "CA", "zip_code": "92411", "lat": 34.131375, "lng": -117.322557}, "435": {"provider_name": "Cvs Store #09313", "address1": "7241 Boulder Ave", "address2": "Cvs Pharmacy", "city": "Highland", "county": "San Bernardino", "state_code": "CA", "zip_code": "92346", "lat": -24.836476, "lng": -74.839501}, "436": {"provider_name": "Cvs Store #09724", "address1": "7911 Haven Ave.", "address2": "Cvs Pharmacy", "city": "Rancho Cucamonga", "county": "San Bernardino", "state_code": "CA", "zip_code": "91730", "lat": 34.110051, "lng": -117.575768}, "437": {"provider_name": "Rite Aid 05705", "address1": "14629 7th Street", "address2": null, "city": "Victorville", "county": "San Bernardino", "state_code": "CA", "zip_code": "92395-4019", "lat": 34.516833, "lng": -117.312606}, "438": {"provider_name": "Cvs Store #09649", "address1": "33499 Yucaipa Blvd", "address2": "Cvs Pharmacy", "city": "Yucaipa", "county": "San Bernardino", "state_code": "CA", "zip_code": "92399", "lat": 34.03386, "lng": -117.073673}, "439": {"provider_name": "Chino Valley Medical Center", "address1": "5451 Walnut Ave", "address2": null, "city": "Chino", "county": "San Bernardino", "state_code": "CA", "zip_code": "91710", "lat": 34.02637, "lng": -117.685988}, "440": {"provider_name": "Loma Linda University Medical Cente", "address1": "11223 Campus Street", "address2": "Dock B", "city": "Loma Linda", "county": "San Bernardino", "state_code": "CA", "zip_code": "92354", "lat": 34.049577, "lng": -117.26568}, "441": {"provider_name": "Rite Aid 06473", "address1": "14515 Mojave Drive, Ste B", "address2": null, "city": "Victorville", "county": "San Bernardino", "state_code": "CA", "zip_code": "92394-6720", "lat": 34.528427, "lng": -117.346543}, "442": {"provider_name": "Arrowhead Regional Medical Center", "address1": "400 North Pepper Avenue", "address2": "Attention: Pharmacy Dept.", "city": "Colton", "county": "San Bernardino", "state_code": "CA", "zip_code": "92324", "lat": 34.072959, "lng": -117.352833}, "443": {"provider_name": "Kindred Hospital Rancho", "address1": "10841 White Oak Ave", "address2": null, "city": "Rancho Cucamonga", "county": "San Bernardino", "state_code": "CA", "zip_code": "91730", "lat": 34.104709, "lng": -117.56643}, "444": {"provider_name": "San Bernardino County Dph", "address1": "247 S Boyd St", "address2": null, "city": "San Bernardino", "county": "San Bernardino", "state_code": "CA", "zip_code": "92408", "lat": 34.097627, "lng": -117.286278}, "445": {"provider_name": "Cvs Store #08436", "address1": "27310 Baseline", "address2": "Cvs Pharmacy", "city": "Highland", "county": "San Bernardino", "state_code": "CA", "zip_code": "92346", "lat": 34.121305, "lng": -117.208264}, "446": {"provider_name": "Cvs Store #09727", "address1": "2456 S Grove Ave", "address2": "Cvs Pharmacy", "city": "Ontario", "county": "San Bernardino", "state_code": "CA", "zip_code": "91761", "lat": 34.028921, "lng": -117.628427}, "447": {"provider_name": "Kaiser Fontana Hsb 24 Hour Outpatie", "address1": "9961 Sierra Avenue", "address2": "First Floor", "city": "Fontana", "county": "San Bernardino", "state_code": "CA", "zip_code": "92335", "lat": 34.072271, "lng": -117.433458}, "448": {"provider_name": "Cvs Store #09619", "address1": "9840 Sierra Ave.", "address2": "Cvs Pharmacy", "city": "Fontana", "county": "San Bernardino", "state_code": "CA", "zip_code": "92335", "lat": 34.075228, "lng": -117.435687}, "449": {"provider_name": "Cvs Store #09705", "address1": "13181 Peyton Drive", "address2": "Cvs Pharmacy", "city": "Chino Hills", "county": "San Bernardino", "state_code": "CA", "zip_code": "91709", "lat": 118.873978, "lng": 10.433394}, "450": {"provider_name": "Cvs Store #04291", "address1": "12058 Palmdale Rd", "address2": "Cvs Pharmacy", "city": "Adelanto", "county": "San Bernardino", "state_code": "CA", "zip_code": "92301", "lat": 34.506678, "lng": -117.400446}, "451": {"provider_name": "Cvs Store #10792", "address1": "1010 N. Pepper Avenue", "address2": "Cvs Pharmacy", "city": "Colton", "county": "San Bernardino", "state_code": "CA", "zip_code": "92324", "lat": 34.078234, "lng": -117.352922}, "452": {"provider_name": "Rite Aid 05700", "address1": "4120 Phelan Rd", "address2": null, "city": "Phelan", "county": "San Bernardino", "state_code": "CA", "zip_code": "92371", "lat": 34.426313, "lng": -117.571897}, "453": {"provider_name": "Cvs Store #09794", "address1": "5200 N University Parkway", "address2": "Cvs Pharmacy", "city": "San Bernardino", "county": "San Bernardino", "state_code": "CA", "zip_code": "92407", "lat": 34.17637, "lng": -117.330926}, "454": {"provider_name": "Montclair Hospital Medical Center", "address1": "5000 San Bernardino St", "address2": null, "city": "Montclair", "county": "San Bernardino", "state_code": "CA", "zip_code": "91763", "lat": 34.077662, "lng": -117.69597}, "455": {"provider_name": "Loma Linda University Childrens Ho", "address1": "11223 Campus Street", "address2": "Dock B", "city": "Loma Linda", "county": "San Bernardino", "state_code": "CA", "zip_code": "92354", "lat": 34.049577, "lng": -117.26568}, "456": {"provider_name": "Cvs Store #09664", "address1": "1564 W. Base Line St.", "address2": "Cvs Pharmacy", "city": "San Bernardino", "county": "San Bernardino", "state_code": "CA", "zip_code": "92411", "lat": 34.12133, "lng": -117.320291}, "457": {"provider_name": "Morongo Basin Community Health Ctr", "address1": "58375 29 Palms Hwy", "address2": null, "city": "Yucca Valley", "county": "San Bernardino", "state_code": "CA", "zip_code": "92284", "lat": 34.131421, "lng": -116.390462}, "458": {"provider_name": "Rite Aid 06538", "address1": "19035 Bear Valley Road", "address2": null, "city": "Apple Valley", "county": "San Bernardino", "state_code": "CA", "zip_code": "92308-6709", "lat": 34.47094, "lng": -117.248489}, "459": {"provider_name": "Rite Aid 05685", "address1": "72253 Twentynine Palms Highway", "address2": null, "city": "Twentynine Palms", "county": "San Bernardino", "state_code": "CA", "zip_code": "92277-2417", "lat": 34.135445, "lng": -116.086844}}, "treatments": {"429": {"Molnupiravir": 238, "Paxlovid": 37}, "430": {"Paxlovid": 14, "Molnupiravir": 158}, "431": {"Molnupiravir": 22, "Evusheld": 24}, "432": {"Paxlovid": 20, "Molnupiravir": 60}, "433": {"Paxlovid": 20, "Molnupiravir": 60, "Evusheld": 271}, "434": {"Paxlovid": 12, "Molnupiravir": 59}, "435": {"Molnupiravir": 158, "Paxlovid": 16}, "436": {"Paxlovid": 9, "Molnupiravir": 160}, "437": {"Molnupiravir": 160, "Paxlovid": 16}, "438": {"Paxlovid": 6, "Molnupiravir": 145}, "439": {"Molnupiravir": 30, "Paxlovid": 20}, "440": {"Evusheld": 192}, "441": {"Molnupiravir": 139, "Paxlovid": 18}, "442": {"Paxlovid": 20, "Molnupiravir": 60, "Evusheld": 72}, "443": {"Molnupiravir": 60, "Paxlovid": 20}, "444": {"Molnupiravir": 280, "Paxlovid": 20}, "445": {"Molnupiravir": 139, "Paxlovid": 12}, "446": {"Paxlovid": 40, "Molnupiravir": 160}, "447": {"Paxlovid": 42, "Evusheld": 96, "Molnupiravir": 280}, "448": {"Molnupiravir": 132, "Paxlovid": 18}, "449": {"Paxlovid": 9, "Molnupiravir": 157}, "450": {"Paxlovid": 25, "Molnupiravir": 137}, "451": {"Molnupiravir": 57, "Paxlovid": 18}, "452": {"Paxlovid": 36, "Molnupiravir": 159}, "453": {"Molnupiravir": 59, "Paxlovid": 14}, "454": {"Molnupiravir": 30, "Paxlovid": 20}, "455": {"Evusheld": 192}, "456": {"Paxlovid": 20}, "457": {"Paxlovid": 16, "Molnupiravir": 54}, "458": {"Paxlovid": 19, "Molnupiravir": 128}, "459": {"Paxlovid": 16, "Molnupiravir": 138}}}