{"path": ["CA", "San Bernardino"], "total_courses": {"2021/12/28": {"Molnupiravir": 0, "Paxlovid": 0}, "2021/12/29": {"Evusheld": 0, "Molnupiravir": 0, "Paxlovid": 0}, "2021/12/30": {"Evusheld": 0, "Molnupiravir": 0, "Paxlovid": 0}, "2022/01/03": {"Evusheld": 120, "Molnupiravir": 1780, "Paxlovid": 320}, "2022/01/04": {"Evusheld": 864, "Molnupiravir": 1920, "Paxlovid": 360}, "2022/01/05": {"Evusheld": 864, "Molnupiravir": 1980, "Paxlovid": 380}}, "courses_delivered": {"2021/12/28": {"Molnupiravir": 0, "Paxlovid": 0}, "2021/12/29": {"Evusheld": 0, "Molnupiravir": 0, "Paxlovid": 0}, "2021/12/30": {"Evusheld": 0, "Molnupiravir": 0, "Paxlovid": 0}, "2022/01/03": {"Evusheld": 0, "Molnupiravir": 180, "Paxlovid": 21}, "2022/01/04": {"Evusheld": 624, "Molnupiravir": 180, "Paxlovid": 36}, "2022/01/05": {"Evusheld": 624, "Molnupiravir": 60, "Paxlovid": 46}}, "courses_available": {"2021/12/28": {"Molnupiravir": 0, "Paxlovid": 0}, "2021/12/29": {"Evusheld": 0, "Molnupiravir": 0, "Paxlovid": 0}, "2021/12/30": {"Evusheld": 0, "Molnupiravir": 0, "Paxlovid": 0}, "2022/01/03": {"Evusheld": 120, "Molnupiravir": 0, "Paxlovid": 219}, "2022/01/04": {"Evusheld": 240, "Molnupiravir": 60, "Paxlovid": 224}, "2022/01/05": {"Evusheld": 240, "Molnupiravir": 520, "Paxlovid": 234}}, "children": [], "providers": {"ChIJZb0WK6w2w4ARnDw-EHAExh8": {"provider_name": "San Antonio Regional Hospital", "address1": "999 San Bernardino Rd.", "address2": null, "city": "Upland", "county": "San Bernardino", "state_code": "CA", "zip_code": "91786", "lat": 34.1019041, "lng": -117.6374336, "place_id": "ChIJZb0WK6w2w4ARnDw-EHAExh8", "order_label": "Paxlovid"}, "ChIJg75-UblMw4AR-AuqnF6mc8o": {"provider_name": "Cvs Store #09619", "address1": "9840 Sierra Ave.", "address2": "Cvs Pharmacy", "city": "Fontana", "county": "San Bernardino", "state_code": "CA", "zip_code": "92335", "lat": 34.0751368, "lng": -117.43756, "place_id": "ChIJg75-UblMw4AR-AuqnF6mc8o", "order_label": "Paxlovid"}, "ChIJIQvh2Ier3IARqYq5GblubF4": {"provider_name": "Loma Linda University Medical Cente", "address1": "11223 Campus Street", "address2": "Dock B", "city": "Loma Linda", "county": "San Bernardino", "state_code": "CA", "zip_code": "92354", "lat": 34.0496592, "lng": -117.2645475, "place_id": "ChIJIQvh2Ier3IARqYq5GblubF4", "order_label": "Evusheld"}, "ChIJL-CzY7s0w4ARZQ180oxfBxE": {"provider_name": "Cvs Store #09727", "address1": "2456 S Grove Ave", "address2": "Cvs Pharmacy", "city": "Ontario", "county": "San Bernardino", "state_code": "CA", "zip_code": "91761", "lat": 34.0287087, "lng": -117.6301908, "place_id": "ChIJL-CzY7s0w4ARZQ180oxfBxE", "order_label": "Paxlovid"}, "ChIJqcoTlinH2oARMlBunk8AZW4": {"provider_name": "Rite Aid 05685", "address1": "72253 Twentynine Palms Highway", "address2": null, "city": "Twentynine Palms", "county": "San Bernardino", "state_code": "CA", "zip_code": "92277-2417", "lat": 34.1347775, "lng": -116.0867313, "place_id": "ChIJqcoTlinH2oARMlBunk8AZW4", "order_label": "Molnupiravir"}, "ChIJR2bIQ70Uw4ARkbt-HJl8zDM": {"provider_name": "Rite Aid 05700", "address1": "4120 Phelan Rd", "address2": null, "city": "Phelan", "county": "San Bernardino", "state_code": "CA", "zip_code": "92371", "lat": 34.4272307, "lng": -117.5720551, "place_id": "ChIJR2bIQ70Uw4ARkbt-HJl8zDM", "order_label": "Molnupiravir"}, "ChIJAdEItxtvw4ARy_CW0ogSJZg": {"provider_name": "Cvs Store #04291", "address1": "12058 Palmdale Rd", "address2": "Cvs Pharmacy", "city": "Adelanto", "county": "San Bernardino", "state_code": "CA", "zip_code": "92301", "lat": 34.5071102, "lng": -117.4007772, "place_id": "ChIJAdEItxtvw4ARy_CW0ogSJZg", "order_label": "Paxlovid"}, "ChIJZXYDqTzY2oARm4ZeKZdM5Ao": {"provider_name": "Morongo Basin Community Health Ctr", "address1": "58375 29 Palms Hwy", "address2": null, "city": "Yucca Valley", "county": "San Bernardino", "state_code": "CA", "zip_code": "92284", "lat": 34.131001, "lng": -116.3901095, "place_id": "ChIJZXYDqTzY2oARm4ZeKZdM5Ao", "order_label": "Molnupiravir"}, "ChIJqxOMbnU2w4ARyidw8VgAag4": {"provider_name": "Cvs Store #09724", "address1": "7911 Haven Ave.", "address2": "Cvs Pharmacy", "city": "Rancho Cucamonga", "county": "San Bernardino", "state_code": "CA", "zip_code": "91730", "lat": 34.1100257, "lng": -117.5750357, "place_id": "ChIJqxOMbnU2w4ARyidw8VgAag4", "order_label": "Paxlovid"}, "ChIJAZ7RIdxgw4ARFueFRnqGoF8": {"provider_name": "Rite Aid 06538", "address1": "19035 Bear Valley Road", "address2": null, "city": "Apple Valley", "county": "San Bernardino", "state_code": "CA", "zip_code": "92308-6709", "lat": 34.4702696, "lng": -117.2484133, "place_id": "ChIJAZ7RIdxgw4ARFueFRnqGoF8", "order_label": "Molnupiravir"}, "ChIJLV0HriVNw4ARibFC_cFl_bw": {"provider_name": "Cvs Store #11035", "address1": "16049 Baseline Avenue #1", "address2": "Cvs Pharmacy", "city": "Fontana", "county": "San Bernardino", "state_code": "CA", "zip_code": "92336", "lat": 34.1207524, "lng": -117.4544458, "place_id": "ChIJLV0HriVNw4ARibFC_cFl_bw", "order_label": "Paxlovid"}, "ChIJM0IpfDNkw4ARdvG6zll3Adw": {"provider_name": "Rite Aid 05705", "address1": "14629 7th Street", "address2": null, "city": "Victorville", "county": "San Bernardino", "state_code": "CA", "zip_code": "92395-4019", "lat": 34.516513, "lng": -117.3121374, "place_id": "ChIJM0IpfDNkw4ARdvG6zll3Adw", "order_label": "Molnupiravir"}, "ChIJ-666uFGt3IARN4rkq_Mfn2U": {"provider_name": "Arrowhead Regional Medical Center", "address1": "400 North Pepper Avenue", "address2": "Attention: Pharmacy Dept.", "city": "Colton", "county": "San Bernardino", "state_code": "CA", "zip_code": "92324", "lat": 34.0734357, "lng": -117.3507991, "place_id": "ChIJ-666uFGt3IARN4rkq_Mfn2U", "order_label": "Evusheld"}, "ChIJoXarJfGt3IARBMAe3_gIk7g": {"provider_name": "Cvs Store #10792", "address1": "1010 N. Pepper Avenue", "address2": "Cvs Pharmacy", "city": "Colton", "county": "San Bernardino", "state_code": "CA", "zip_code": "92324", "lat": 34.0781064, "lng": -117.3524554, "place_id": "ChIJoXarJfGt3IARBMAe3_gIk7g", "order_label": "Paxlovid"}, "Ei0xNDUxNSBNb2phdmUgRHIgYiwgVmljdG9ydmlsbGUsIENBIDkyMzk0LCBVU0EiHRobChYKFAoSCQXbmZObZcOAEW3tA6-F2CNpEgFi": {"provider_name": "Rite Aid 06473", "address1": "14515 Mojave Drive, Ste B", "address2": null, "city": "Victorville", "county": "San Bernardino", "state_code": "CA", "zip_code": "92394-6720", "lat": 34.5282314, "lng": -117.3457074, "place_id": "Ei0xNDUxNSBNb2phdmUgRHIgYiwgVmljdG9ydmlsbGUsIENBIDkyMzk0LCBVU0EiHRobChYKFAoSCQXbmZObZcOAEW3tA6-F2CNpEgFi", "order_label": "Molnupiravir"}, "ChIJIwZ92lVSw4ARHiJcUEcVFF8": {"provider_name": "Community Hospital Of San Bernardin", "address1": "1805 Medical Center Dr", "address2": null, "city": "San Bernardino", "county": "San Bernardino", "state_code": "CA", "zip_code": "92411", "lat": 34.1313185, "lng": -117.3209714, "place_id": "ChIJIwZ92lVSw4ARHiJcUEcVFF8", "order_label": "Paxlovid"}, "ChIJ8_9Vto9Uw4ARMnyvLuAdPNs": {"provider_name": "Cvs Store #09341", "address1": "1540 E Highland Ave", "address2": "Cvs Pharmacy", "city": "San Bernardino", "county": "San Bernardino", "state_code": "CA", "zip_code": "92404", "lat": 34.137013, "lng": -117.2535575, "place_id": "ChIJ8_9Vto9Uw4ARMnyvLuAdPNs", "order_label": "Paxlovid"}, "ChIJCSfR_S1R24ARglgXXkh3GqI": {"provider_name": "Cvs Store #09649", "address1": "33499 Yucaipa Blvd", "address2": "Cvs Pharmacy", "city": "Yucaipa", "county": "San Bernardino", "state_code": "CA", "zip_code": "92399", "lat": 34.0331336, "lng": -117.073662, "place_id": "ChIJCSfR_S1R24ARglgXXkh3GqI", "order_label": "Paxlovid"}, "ChIJKSOTcmQtw4ART5u9uBgx4z8": {"provider_name": "Cvs Store #09705", "address1": "13181 Peyton Drive", "address2": "Cvs Pharmacy", "city": "Chino Hills", "county": "San Bernardino", "state_code": "CA", "zip_code": "91709", "lat": 34.013075, "lng": -117.7432621, "place_id": "ChIJKSOTcmQtw4ART5u9uBgx4z8", "order_label": "Paxlovid"}}, "treatments": {"ChIJZb0WK6w2w4ARnDw-EHAExh8": {"Evusheld": 48, "Molnupiravir": 60, "Paxlovid": 20}, "ChIJg75-UblMw4AR-AuqnF6mc8o": {"Paxlovid": 20}, "ChIJIQvh2Ier3IARqYq5GblubF4": {"Evusheld": 24}, "ChIJL-CzY7s0w4ARZQ180oxfBxE": {"Paxlovid": 20}, "ChIJqcoTlinH2oARMlBunk8AZW4": {"Molnupiravir": 60}, "ChIJR2bIQ70Uw4ARkbt-HJl8zDM": {"Paxlovid": 20, "Molnupiravir": 80}, "ChIJAdEItxtvw4ARy_CW0ogSJZg": {"Molnupiravir": 60, "Paxlovid": 17}, "ChIJZXYDqTzY2oARm4ZeKZdM5Ao": {"Paxlovid": 20, "Molnupiravir": 60}, "ChIJqxOMbnU2w4ARyidw8VgAag4": {"Paxlovid": 20}, "ChIJAZ7RIdxgw4ARFueFRnqGoF8": {"Molnupiravir": 60}, "ChIJLV0HriVNw4ARibFC_cFl_bw": {"Paxlovid": 20}, "ChIJM0IpfDNkw4ARdvG6zll3Adw": {"Molnupiravir": 80}, "ChIJ-666uFGt3IARN4rkq_Mfn2U": {"Evusheld": 24}, "ChIJoXarJfGt3IARBMAe3_gIk7g": {"Paxlovid": 17}, "Ei0xNDUxNSBNb2phdmUgRHIgYiwgVmljdG9ydmlsbGUsIENBIDkyMzk0LCBVU0EiHRobChYKFAoSCQXbmZObZcOAEW3tA6-F2CNpEgFi": {"Molnupiravir": 60}, "ChIJIwZ92lVSw4ARHiJcUEcVFF8": {"Paxlovid": 20}, "ChIJ8_9Vto9Uw4ARMnyvLuAdPNs": {"Paxlovid": 19}, "ChIJCSfR_S1R24ARglgXXkh3GqI": {"Paxlovid": 10}, "ChIJKSOTcmQtw4ART5u9uBgx4z8": {"Paxlovid": 11}}}