{"path": ["CA", "San Bernardino"], "total_courses": {"2022/01/05": {"Evusheld": 864, "Molnupiravir": 1980, "Paxlovid": 380}, "2022/01/07": {"Evusheld": 504, "Molnupiravir": 2040, "Paxlovid": 400}, "2022/01/10": {"Evusheld": 840, "Molnupiravir": 2040, "Paxlovid": 400}}, "courses_delivered": {"2022/01/05": {"Evusheld": 624, "Molnupiravir": 60, "Paxlovid": 46}, "2022/01/07": {"Evusheld": 312, "Molnupiravir": 60, "Paxlovid": 55}, "2022/01/10": {"Evusheld": 624, "Molnupiravir": 63, "Paxlovid": 51}}, "courses_available": {"2022/01/05": {"Evusheld": 240, "Molnupiravir": 520, "Paxlovid": 234}, "2022/01/07": {"Evusheld": 120, "Molnupiravir": 1160, "Paxlovid": 225}, "2022/01/10": {"Evusheld": 144, "Molnupiravir": 1437, "Paxlovid": 274}}, "children": {}, "child_treatments": [], "providers": {"1894": {"provider_name": "Cvs Store #09341", "address1": "1540 E Highland Ave", "address2": "Cvs Pharmacy", "city": "San Bernardino", "county": "San Bernardino", "state_code": "CA", "zip_code": "92404", "lat": 34.135855, "lng": -117.25355, "order_label": "Molnupiravir"}, "1895": {"provider_name": "Cvs Store #09649", "address1": "33499 Yucaipa Blvd", "address2": "Cvs Pharmacy", "city": "Yucaipa", "county": "San Bernardino", "state_code": "CA", "zip_code": "92399", "lat": 34.03386, "lng": -117.073673, "order_label": "Paxlovid"}, "1896": {"provider_name": "Cvs Store #09705", "address1": "13181 Peyton Drive", "address2": "Cvs Pharmacy", "city": "Chino Hills", "county": "San Bernardino", "state_code": "CA", "zip_code": "91709", "lat": 34.013075, "lng": -117.7432621, "order_label": "Paxlovid"}, "1897": {"provider_name": "Cvs Store #09724", "address1": "7911 Haven Ave.", "address2": "Cvs Pharmacy", "city": "Rancho Cucamonga", "county": "San Bernardino", "state_code": "CA", "zip_code": "91730", "lat": 34.110051, "lng": -117.575768, "order_label": "Molnupiravir"}, "1898": {"provider_name": "Morongo Basin Community Health Ctr", "address1": "58375 29 Palms Hwy", "address2": null, "city": "Yucca Valley", "county": "San Bernardino", "state_code": "CA", "zip_code": "92284", "lat": 34.131421, "lng": -116.390462, "order_label": "Molnupiravir"}, "1899": {"provider_name": "San Antonio Regional Hospital", "address1": "999 San Bernardino Rd.", "address2": null, "city": "Upland", "county": "San Bernardino", "state_code": "CA", "zip_code": "91786", "lat": 34.101004, "lng": -117.637034, "order_label": "Evusheld"}, "1900": {"provider_name": "Cvs Store #09664", "address1": "1564 W. Base Line St.", "address2": "Cvs Pharmacy", "city": "San Bernardino", "county": "San Bernardino", "state_code": "CA", "zip_code": "92411", "lat": 34.12133, "lng": -117.320291, "order_label": "Molnupiravir"}, "1901": {"provider_name": "Rite Aid 06473", "address1": "14515 Mojave Drive, Ste B", "address2": null, "city": "Victorville", "county": "San Bernardino", "state_code": "CA", "zip_code": "92394-6720", "lat": 34.528427, "lng": -117.346543, "order_label": "Molnupiravir"}, "1902": {"provider_name": "Rite Aid 05685", "address1": "72253 Twentynine Palms Highway", "address2": null, "city": "Twentynine Palms", "county": "San Bernardino", "state_code": "CA", "zip_code": "92277-2417", "lat": 34.135445, "lng": -116.086844, "order_label": "Molnupiravir"}, "1903": {"provider_name": "Rite Aid 06538", "address1": "19035 Bear Valley Road", "address2": null, "city": "Apple Valley", "county": "San Bernardino", "state_code": "CA", "zip_code": "92308-6709", "lat": 34.47094, "lng": -117.248489, "order_label": "Molnupiravir"}, "1904": {"provider_name": "Community Hospital Of San Bernardin", "address1": "1805 Medical Center Dr", "address2": null, "city": "San Bernardino", "county": "San Bernardino", "state_code": "CA", "zip_code": "92411", "lat": 34.131375, "lng": -117.322557, "order_label": "Molnupiravir"}, "1905": {"provider_name": "Cvs Store #09727", "address1": "2456 S Grove Ave", "address2": "Cvs Pharmacy", "city": "Ontario", "county": "San Bernardino", "state_code": "CA", "zip_code": "91761", "lat": 34.028921, "lng": -117.628427, "order_label": "Paxlovid"}, "1906": {"provider_name": "Arrowhead Regional Medical Center", "address1": "400 North Pepper Avenue", "address2": "Attention: Pharmacy Dept.", "city": "Colton", "county": "San Bernardino", "state_code": "CA", "zip_code": "92324", "lat": 34.072959, "lng": -117.352833, "order_label": "Evusheld"}, "1907": {"provider_name": "Rite Aid 05705", "address1": "14629 7th Street", "address2": null, "city": "Victorville", "county": "San Bernardino", "state_code": "CA", "zip_code": "92395-4019", "lat": 34.516833, "lng": -117.312606, "order_label": "Molnupiravir"}, "1908": {"provider_name": "Cvs Store #10792", "address1": "1010 N. Pepper Avenue", "address2": "Cvs Pharmacy", "city": "Colton", "county": "San Bernardino", "state_code": "CA", "zip_code": "92324", "lat": 34.078234, "lng": -117.352922, "order_label": "Molnupiravir"}, "1909": {"provider_name": "Cvs Store #04291", "address1": "12058 Palmdale Rd", "address2": "Cvs Pharmacy", "city": "Adelanto", "county": "San Bernardino", "state_code": "CA", "zip_code": "92301", "lat": 34.506678, "lng": -117.400446, "order_label": "Paxlovid"}, "1910": {"provider_name": "Loma Linda University Childrens Ho", "address1": "11223 Campus Street", "address2": "Dock B", "city": "Loma Linda", "county": "San Bernardino", "state_code": "CA", "zip_code": "92354", "lat": 34.049577, "lng": -117.26568, "order_label": "Evusheld"}, "1911": {"provider_name": "Cvs Store #11035", "address1": "16049 Baseline Avenue #1", "address2": "Cvs Pharmacy", "city": "Fontana", "county": "San Bernardino", "state_code": "CA", "zip_code": "92336", "lat": 34.121323, "lng": -117.454774, "order_label": "Paxlovid"}, "1912": {"provider_name": "Rite Aid 05700", "address1": "4120 Phelan Rd", "address2": null, "city": "Phelan", "county": "San Bernardino", "state_code": "CA", "zip_code": "92371", "lat": 34.426313, "lng": -117.571897, "order_label": "Paxlovid"}, "1913": {"provider_name": "Cvs Store #09313", "address1": "7241 Boulder Ave", "address2": "Cvs Pharmacy", "city": "Highland", "county": "San Bernardino", "state_code": "CA", "zip_code": "92346", "lat": 34.1225876, "lng": -117.1940234, "order_label": "Molnupiravir"}, "1914": {"provider_name": "Cvs Store #09619", "address1": "9840 Sierra Ave.", "address2": "Cvs Pharmacy", "city": "Fontana", "county": "San Bernardino", "state_code": "CA", "zip_code": "92335", "lat": 34.075228, "lng": -117.435687, "order_label": "Molnupiravir"}, "1915": {"provider_name": "San Bernardino County Dph", "address1": "247 S Boyd St", "address2": null, "city": "San Bernardino", "county": "San Bernardino", "state_code": "CA", "zip_code": "92408", "lat": 34.097627, "lng": -117.286278, "order_label": "Paxlovid"}, "1916": {"provider_name": "Cvs Store #08436", "address1": "27310 Baseline", "address2": "Cvs Pharmacy", "city": "Highland", "county": "San Bernardino", "state_code": "CA", "zip_code": "92346", "lat": 34.121305, "lng": -117.208264, "order_label": "Molnupiravir"}, "1917": {"provider_name": "Loma Linda University Medical Cente", "address1": "11223 Campus Street", "address2": "Dock B", "city": "Loma Linda", "county": "San Bernardino", "state_code": "CA", "zip_code": "92354", "lat": 34.049577, "lng": -117.26568, "order_label": "Evusheld"}, "1918": {"provider_name": "Cvs Store #09794", "address1": "5200 N University Parkway", "address2": "Cvs Pharmacy", "city": "San Bernardino", "county": "San Bernardino", "state_code": "CA", "zip_code": "92407", "lat": 34.17637, "lng": -117.330926, "order_label": "Molnupiravir"}}, "treatments": {"1894": {"Paxlovid": 15, "Molnupiravir": 80}, "1895": {"Molnupiravir": 80, "Paxlovid": 5}, "1896": {"Molnupiravir": 80, "Paxlovid": 2}, "1897": {"Paxlovid": 20, "Molnupiravir": 80}, "1898": {"Paxlovid": 20, "Molnupiravir": 60}, "1899": {"Paxlovid": 20, "Molnupiravir": 60, "Evusheld": 48}, "1900": {"Molnupiravir": 60}, "1901": {"Molnupiravir": 60}, "1902": {"Molnupiravir": 60}, "1903": {"Molnupiravir": 58}, "1904": {"Paxlovid": 20, "Molnupiravir": 60}, "1905": {"Molnupiravir": 80, "Paxlovid": 20}, "1906": {"Paxlovid": 25, "Evusheld": 24}, "1907": {"Molnupiravir": 80}, "1908": {"Paxlovid": 17, "Molnupiravir": 59}, "1909": {"Molnupiravir": 60, "Paxlovid": 17}, "1910": {"Evusheld": 24}, "1911": {"Molnupiravir": 80, "Paxlovid": 17}, "1912": {"Molnupiravir": 80, "Paxlovid": 20}, "1913": {"Molnupiravir": 80}, "1914": {"Paxlovid": 16, "Molnupiravir": 60}, "1915": {"Paxlovid": 40}, "1916": {"Molnupiravir": 60}, "1917": {"Evusheld": 24}, "1918": {"Molnupiravir": 60}}}