{"path": ["CA", "San Bernardino"], "total_courses": {"2022/01/05": {"Evusheld": 864, "Molnupiravir": 1980, "Paxlovid": 380}, "2022/01/07": {"Evusheld": 504, "Molnupiravir": 2040, "Paxlovid": 400}, "2022/01/10": {"Evusheld": 840, "Molnupiravir": 2040, "Paxlovid": 400}, "2022/01/11": {"Evusheld": 744, "Molnupiravir": 2040, "Paxlovid": 400}, "2022/01/12": {"Evusheld": 1032, "Molnupiravir": 2100, "Paxlovid": 420}, "2022/01/13": {"Evusheld": 1032, "Molnupiravir": 2140, "Paxlovid": 440}, "2022/01/14": {"Evusheld": 1032, "Molnupiravir": 2580, "Paxlovid": 540}, "2022/01/19": {"Evusheld": 1224, "Molnupiravir": 3700, "Paxlovid": 820}, "2022/01/21": {"Evusheld": 1320, "Molnupiravir": 4040, "Paxlovid": 900}}, "courses_delivered": {"2022/01/05": {"Evusheld": 624, "Molnupiravir": 60, "Paxlovid": 46}, "2022/01/07": {"Evusheld": 312, "Molnupiravir": 60, "Paxlovid": 55}, "2022/01/10": {"Evusheld": 624, "Molnupiravir": 63, "Paxlovid": 51}, "2022/01/11": {"Evusheld": 216, "Molnupiravir": 69, "Paxlovid": 93}, "2022/01/12": {"Evusheld": 408, "Molnupiravir": 73, "Paxlovid": 121}, "2022/01/13": {"Evusheld": 408, "Molnupiravir": 75, "Paxlovid": 143}, "2022/01/14": {"Evusheld": 265, "Molnupiravir": 543, "Paxlovid": 183}, "2022/01/19": {"Evusheld": 361, "Molnupiravir": 1622, "Paxlovid": 362}, "2022/01/21": {"Evusheld": 280, "Molnupiravir": 594, "Paxlovid": 275}}, "courses_available": {"2022/01/05": {"Evusheld": 240, "Molnupiravir": 520, "Paxlovid": 234}, "2022/01/07": {"Evusheld": 120, "Molnupiravir": 1160, "Paxlovid": 225}, "2022/01/10": {"Evusheld": 144, "Molnupiravir": 1437, "Paxlovid": 274}, "2022/01/11": {"Evusheld": 360, "Molnupiravir": 1771, "Paxlovid": 252}, "2022/01/12": {"Evusheld": 432, "Molnupiravir": 1827, "Paxlovid": 244}, "2022/01/13": {"Evusheld": 432, "Molnupiravir": 1847, "Paxlovid": 217}, "2022/01/14": {"Evusheld": 575, "Molnupiravir": 1899, "Paxlovid": 237}, "2022/01/19": {"Evusheld": 575, "Molnupiravir": 1940, "Paxlovid": 338}, "2022/01/21": {"Evusheld": 680, "Molnupiravir": 3308, "Paxlovid": 566}}, "children": {}, "child_treatments": [], "providers": {"2147": {"provider_name": "Cvs Store #09313", "address1": "7241 Boulder Ave", "address2": "Cvs Pharmacy", "city": "Highland", "county": "San Bernardino", "state_code": "CA", "zip_code": "92346", "lat": -170.749504, "lng": -25.397941}, "2148": {"provider_name": "Montclair Hospital Medical Center", "address1": "5000 San Bernardino St", "address2": null, "city": "Montclair", "county": "San Bernardino", "state_code": "CA", "zip_code": "91763", "lat": 34.077662, "lng": -117.69597}, "2149": {"provider_name": "Morongo Basin Community Health Ctr", "address1": "58375 29 Palms Hwy", "address2": null, "city": "Yucca Valley", "county": "San Bernardino", "state_code": "CA", "zip_code": "92284", "lat": 34.131421, "lng": -116.390462}, "2150": {"provider_name": "St Mary Health Center-apple Valley", "address1": "18077 Ca-18 Suite 100", "address2": null, "city": "Apple Valley", "county": "San Bernardino", "state_code": "CA", "zip_code": "92307", "lat": 34.54035, "lng": -117.269706}, "2151": {"provider_name": "Cvs Store #09649", "address1": "33499 Yucaipa Blvd", "address2": "Cvs Pharmacy", "city": "Yucaipa", "county": "San Bernardino", "state_code": "CA", "zip_code": "92399", "lat": 34.03386, "lng": -117.073673}, "2152": {"provider_name": "Cvs Store #09619", "address1": "9840 Sierra Ave.", "address2": "Cvs Pharmacy", "city": "Fontana", "county": "San Bernardino", "state_code": "CA", "zip_code": "92335", "lat": 34.075228, "lng": -117.435687}, "2153": {"provider_name": "Rite Aid 05700", "address1": "4120 Phelan Rd", "address2": null, "city": "Phelan", "county": "San Bernardino", "state_code": "CA", "zip_code": "92371", "lat": 34.426313, "lng": -117.571897}, "2154": {"provider_name": "Rite Aid 05705", "address1": "14629 7th Street", "address2": null, "city": "Victorville", "county": "San Bernardino", "state_code": "CA", "zip_code": "92395-4019", "lat": 34.516833, "lng": -117.312606}, "2155": {"provider_name": "Cvs Store #09705", "address1": "13181 Peyton Drive", "address2": "Cvs Pharmacy", "city": "Chino Hills", "county": "San Bernardino", "state_code": "CA", "zip_code": "91709", "lat": -125.856946, "lng": 25.895032}, "2156": {"provider_name": "Cvs Store #08436", "address1": "27310 Baseline", "address2": "Cvs Pharmacy", "city": "Highland", "county": "San Bernardino", "state_code": "CA", "zip_code": "92346", "lat": 34.121305, "lng": -117.208264}, "2157": {"provider_name": "Rite Aid 05685", "address1": "72253 Twentynine Palms Highway", "address2": null, "city": "Twentynine Palms", "county": "San Bernardino", "state_code": "CA", "zip_code": "92277-2417", "lat": 34.135445, "lng": -116.086844}, "2158": {"provider_name": "San Bernardino County Dph", "address1": "247 S Boyd St", "address2": null, "city": "San Bernardino", "county": "San Bernardino", "state_code": "CA", "zip_code": "92408", "lat": 34.097627, "lng": -117.286278}, "2159": {"provider_name": "Community Hospital Of San Bernardin", "address1": "1805 Medical Center Dr", "address2": null, "city": "San Bernardino", "county": "San Bernardino", "state_code": "CA", "zip_code": "92411", "lat": 34.131375, "lng": -117.322557}, "2160": {"provider_name": "Cvs Store #09341", "address1": "1540 E Highland Ave", "address2": "Cvs Pharmacy", "city": "San Bernardino", "county": "San Bernardino", "state_code": "CA", "zip_code": "92404", "lat": 34.135855, "lng": -117.25355}, "2161": {"provider_name": "Cvs Store #10792", "address1": "1010 N. Pepper Avenue", "address2": "Cvs Pharmacy", "city": "Colton", "county": "San Bernardino", "state_code": "CA", "zip_code": "92324", "lat": 34.078234, "lng": -117.352922}, "2162": {"provider_name": "Rite Aid 06473", "address1": "14515 Mojave Drive, Ste B", "address2": null, "city": "Victorville", "county": "San Bernardino", "state_code": "CA", "zip_code": "92394-6720", "lat": 34.528427, "lng": -117.346543}, "2163": {"provider_name": "Rite Aid 06538", "address1": "19035 Bear Valley Road", "address2": null, "city": "Apple Valley", "county": "San Bernardino", "state_code": "CA", "zip_code": "92308-6709", "lat": 34.47094, "lng": -117.248489}, "2164": {"provider_name": "Cvs Store #09724", "address1": "7911 Haven Ave.", "address2": "Cvs Pharmacy", "city": "Rancho Cucamonga", "county": "San Bernardino", "state_code": "CA", "zip_code": "91730", "lat": 34.110051, "lng": -117.575768}, "2165": {"provider_name": "Cvs Store #09794", "address1": "5200 N University Parkway", "address2": "Cvs Pharmacy", "city": "San Bernardino", "county": "San Bernardino", "state_code": "CA", "zip_code": "92407", "lat": 34.17637, "lng": -117.330926}, "2166": {"provider_name": "Arrowhead Regional Medical Center", "address1": "400 North Pepper Avenue", "address2": "Attention: Pharmacy Dept.", "city": "Colton", "county": "San Bernardino", "state_code": "CA", "zip_code": "92324", "lat": 34.072959, "lng": -117.352833}, "2167": {"provider_name": "Chino Valley Medical Center", "address1": "5451 Walnut Ave", "address2": null, "city": "Chino", "county": "San Bernardino", "state_code": "CA", "zip_code": "91710", "lat": 34.02637, "lng": -117.685988}, "2168": {"provider_name": "Kaiser Fontana Hsb 24 Hour Outpatie", "address1": "9961 Sierra Avenue", "address2": "First Floor", "city": "Fontana", "county": "San Bernardino", "state_code": "CA", "zip_code": "92335", "lat": 34.072271, "lng": -117.433458}, "2169": {"provider_name": "Loma Linda University Medical Cente", "address1": "11223 Campus Street", "address2": "Dock B", "city": "Loma Linda", "county": "San Bernardino", "state_code": "CA", "zip_code": "92354", "lat": 34.049577, "lng": -117.26568}, "2170": {"provider_name": "San Antonio Regional Hospital", "address1": "999 San Bernardino Rd.", "address2": null, "city": "Upland", "county": "San Bernardino", "state_code": "CA", "zip_code": "91786", "lat": 34.101004, "lng": -117.637034}, "2171": {"provider_name": "Cvs Store #04291", "address1": "12058 Palmdale Rd", "address2": "Cvs Pharmacy", "city": "Adelanto", "county": "San Bernardino", "state_code": "CA", "zip_code": "92301", "lat": 34.506678, "lng": -117.400446}, "2172": {"provider_name": "Kindred Hospital Rancho", "address1": "10841 White Oak Ave", "address2": null, "city": "Rancho Cucamonga", "county": "San Bernardino", "state_code": "CA", "zip_code": "91730", "lat": 34.104709, "lng": -117.56643}, "2173": {"provider_name": "Cvs Store #09664", "address1": "1564 W. Base Line St.", "address2": "Cvs Pharmacy", "city": "San Bernardino", "county": "San Bernardino", "state_code": "CA", "zip_code": "92411", "lat": 34.12133, "lng": -117.320291}, "2174": {"provider_name": "Cvs Store #09727", "address1": "2456 S Grove Ave", "address2": "Cvs Pharmacy", "city": "Ontario", "county": "San Bernardino", "state_code": "CA", "zip_code": "91761", "lat": 34.028921, "lng": -117.628427}, "2175": {"provider_name": "Department Of State Hospitals - Pat", "address1": "3102 E. Highland Ave.", "address2": null, "city": "Patton", "county": "San Bernardino", "state_code": "CA", "zip_code": "92369", "lat": 34.135867, "lng": -117.219827}, "2176": {"provider_name": "Cvs Store #11035", "address1": "16049 Baseline Avenue #1", "address2": "Cvs Pharmacy", "city": "Fontana", "county": "San Bernardino", "state_code": "CA", "zip_code": "92336", "lat": 34.121323, "lng": -117.454774}, "2177": {"provider_name": "Loma Linda University Childrens Ho", "address1": "11223 Campus Street", "address2": "Dock B", "city": "Loma Linda", "county": "San Bernardino", "state_code": "CA", "zip_code": "92354", "lat": 34.049577, "lng": -117.26568}}, "treatments": {"2147": {"Paxlovid": 17, "Molnupiravir": 158}, "2148": {"Paxlovid": 20, "Molnupiravir": 30}, "2149": {"Paxlovid": 16, "Molnupiravir": 56}, "2150": {"Paxlovid": 20, "Molnupiravir": 60}, "2151": {"Paxlovid": 16, "Molnupiravir": 147}, "2152": {"Molnupiravir": 134, "Paxlovid": 20}, "2153": {"Paxlovid": 37, "Molnupiravir": 160}, "2154": {"Molnupiravir": 160, "Paxlovid": 18}, "2155": {"Molnupiravir": 154, "Paxlovid": 19}, "2156": {"Paxlovid": 19, "Molnupiravir": 139}, "2157": {"Paxlovid": 18, "Molnupiravir": 138}, "2158": {"Molnupiravir": 140}, "2159": {"Paxlovid": 15, "Molnupiravir": 59}, "2160": {"Paxlovid": 40, "Molnupiravir": 239}, "2161": {"Molnupiravir": 138, "Paxlovid": 20}, "2162": {"Paxlovid": 20, "Molnupiravir": 139}, "2163": {"Molnupiravir": 130, "Paxlovid": 20}, "2164": {"Molnupiravir": 160, "Paxlovid": 21}, "2165": {"Paxlovid": 21, "Molnupiravir": 59}, "2166": {"Paxlovid": 20, "Evusheld": 72, "Molnupiravir": 60}, "2167": {"Paxlovid": 20, "Molnupiravir": 30}, "2168": {"Paxlovid": 5, "Molnupiravir": 80}, "2169": {"Evusheld": 192}, "2170": {"Evusheld": 200, "Molnupiravir": 60, "Paxlovid": 20}, "2171": {"Molnupiravir": 138, "Paxlovid": 26}, "2172": {"Paxlovid": 20, "Molnupiravir": 60}, "2173": {"Paxlovid": 20, "Molnupiravir": 140}, "2174": {"Molnupiravir": 160, "Paxlovid": 40}, "2175": {"Evusheld": 24, "Molnupiravir": 22}, "2176": {"Paxlovid": 18, "Molnupiravir": 158}, "2177": {"Evusheld": 192}}}