{"path": ["CA", "San Bernardino"], "total_courses": {"2022/01/05": {"Evusheld": 864, "Molnupiravir": 1980, "Paxlovid": 380}, "2022/01/07": {"Evusheld": 504, "Molnupiravir": 2040, "Paxlovid": 400}, "2022/01/10": {"Evusheld": 840, "Molnupiravir": 2040, "Paxlovid": 400}, "2022/01/11": {"Evusheld": 744, "Molnupiravir": 2040, "Paxlovid": 400}, "2022/01/12": {"Evusheld": 1032, "Molnupiravir": 2100, "Paxlovid": 420}, "2022/01/13": {"Evusheld": 1032, "Molnupiravir": 2140, "Paxlovid": 440}, "2022/01/14": {"Evusheld": 1032, "Molnupiravir": 2580, "Paxlovid": 540}, "2022/01/19": {"Evusheld": 1224, "Molnupiravir": 3700, "Paxlovid": 820}}, "courses_delivered": {"2022/01/05": {"Evusheld": 624, "Molnupiravir": 60, "Paxlovid": 46}, "2022/01/07": {"Evusheld": 312, "Molnupiravir": 60, "Paxlovid": 55}, "2022/01/10": {"Evusheld": 624, "Molnupiravir": 63, "Paxlovid": 51}, "2022/01/11": {"Evusheld": 216, "Molnupiravir": 69, "Paxlovid": 93}, "2022/01/12": {"Evusheld": 408, "Molnupiravir": 73, "Paxlovid": 121}, "2022/01/13": {"Evusheld": 408, "Molnupiravir": 75, "Paxlovid": 143}, "2022/01/14": {"Evusheld": 265, "Molnupiravir": 543, "Paxlovid": 183}, "2022/01/19": {"Evusheld": 361, "Molnupiravir": 1622, "Paxlovid": 362}}, "courses_available": {"2022/01/05": {"Evusheld": 240, "Molnupiravir": 520, "Paxlovid": 234}, "2022/01/07": {"Evusheld": 120, "Molnupiravir": 1160, "Paxlovid": 225}, "2022/01/10": {"Evusheld": 144, "Molnupiravir": 1437, "Paxlovid": 274}, "2022/01/11": {"Evusheld": 360, "Molnupiravir": 1771, "Paxlovid": 252}, "2022/01/12": {"Evusheld": 432, "Molnupiravir": 1827, "Paxlovid": 244}, "2022/01/13": {"Evusheld": 432, "Molnupiravir": 1847, "Paxlovid": 217}, "2022/01/14": {"Evusheld": 575, "Molnupiravir": 1899, "Paxlovid": 237}, "2022/01/19": {"Evusheld": 575, "Molnupiravir": 1940, "Paxlovid": 338}}, "children": {}, "child_treatments": [], "providers": {"2578": {"provider_name": "San Bernardino County Dph", "address1": "247 S Boyd St", "address2": null, "city": "San Bernardino", "county": "San Bernardino", "state_code": "CA", "zip_code": "92408", "lat": 34.097627, "lng": -117.286278, "order_label": "Molnupiravir"}, "2579": {"provider_name": "Rite Aid 05700", "address1": "4120 Phelan Rd", "address2": null, "city": "Phelan", "county": "San Bernardino", "state_code": "CA", "zip_code": "92371", "lat": 34.426313, "lng": -117.571897, "order_label": "Paxlovid"}, "2580": {"provider_name": "Kindred Hospital Rancho", "address1": "10841 White Oak Ave", "address2": null, "city": "Rancho Cucamonga", "county": "San Bernardino", "state_code": "CA", "zip_code": "91730", "lat": 34.104709, "lng": -117.56643, "order_label": "Paxlovid"}, "2581": {"provider_name": "Rite Aid 06538", "address1": "19035 Bear Valley Road", "address2": null, "city": "Apple Valley", "county": "San Bernardino", "state_code": "CA", "zip_code": "92308-6709", "lat": 34.47094, "lng": -117.248489, "order_label": "Molnupiravir"}, "2582": {"provider_name": "Rite Aid 06473", "address1": "14515 Mojave Drive, Ste B", "address2": null, "city": "Victorville", "county": "San Bernardino", "state_code": "CA", "zip_code": "92394-6720", "lat": 34.528427, "lng": -117.346543, "order_label": "Paxlovid"}, "2583": {"provider_name": "Community Hospital Of San Bernardin", "address1": "1805 Medical Center Dr", "address2": null, "city": "San Bernardino", "county": "San Bernardino", "state_code": "CA", "zip_code": "92411", "lat": 34.131375, "lng": -117.322557, "order_label": "Paxlovid"}, "2584": {"provider_name": "Morongo Basin Community Health Ctr", "address1": "58375 29 Palms Hwy", "address2": null, "city": "Yucca Valley", "county": "San Bernardino", "state_code": "CA", "zip_code": "92284", "lat": 34.131421, "lng": -116.390462, "order_label": "Molnupiravir"}, "2585": {"provider_name": "Cvs Store #10792", "address1": "1010 N. Pepper Avenue", "address2": "Cvs Pharmacy", "city": "Colton", "county": "San Bernardino", "state_code": "CA", "zip_code": "92324", "lat": 34.078234, "lng": -117.352922, "order_label": "Molnupiravir"}, "2586": {"provider_name": "Cvs Store #04291", "address1": "12058 Palmdale Rd", "address2": "Cvs Pharmacy", "city": "Adelanto", "county": "San Bernardino", "state_code": "CA", "zip_code": "92301", "lat": 34.506678, "lng": -117.400446, "order_label": "Molnupiravir"}, "2587": {"provider_name": "Arrowhead Regional Medical Center", "address1": "400 North Pepper Avenue", "address2": "Attention: Pharmacy Dept.", "city": "Colton", "county": "San Bernardino", "state_code": "CA", "zip_code": "92324", "lat": 34.072959, "lng": -117.352833, "order_label": "Molnupiravir"}, "2588": {"provider_name": "Cvs Store #09794", "address1": "5200 N University Parkway", "address2": "Cvs Pharmacy", "city": "San Bernardino", "county": "San Bernardino", "state_code": "CA", "zip_code": "92407", "lat": 34.17637, "lng": -117.330926, "order_label": "Molnupiravir"}, "2589": {"provider_name": "Cvs Store #08436", "address1": "27310 Baseline", "address2": "Cvs Pharmacy", "city": "Highland", "county": "San Bernardino", "state_code": "CA", "zip_code": "92346", "lat": 34.121305, "lng": -117.208264, "order_label": "Molnupiravir"}, "2590": {"provider_name": "Cvs Store #09341", "address1": "1540 E Highland Ave", "address2": "Cvs Pharmacy", "city": "San Bernardino", "county": "San Bernardino", "state_code": "CA", "zip_code": "92404", "lat": 34.135855, "lng": -117.25355, "order_label": "Molnupiravir"}, "2591": {"provider_name": "Cvs Store #09724", "address1": "7911 Haven Ave.", "address2": "Cvs Pharmacy", "city": "Rancho Cucamonga", "county": "San Bernardino", "state_code": "CA", "zip_code": "91730", "lat": 34.110051, "lng": -117.575768, "order_label": "Molnupiravir"}, "2592": {"provider_name": "Rite Aid 05685", "address1": "72253 Twentynine Palms Highway", "address2": null, "city": "Twentynine Palms", "county": "San Bernardino", "state_code": "CA", "zip_code": "92277-2417", "lat": 34.135445, "lng": -116.086844, "order_label": "Molnupiravir"}, "2593": {"provider_name": "San Antonio Regional Hospital", "address1": "999 San Bernardino Rd.", "address2": null, "city": "Upland", "county": "San Bernardino", "state_code": "CA", "zip_code": "91786", "lat": 34.101004, "lng": -117.637034, "order_label": "Molnupiravir"}, "2594": {"provider_name": "Rite Aid 05705", "address1": "14629 7th Street", "address2": null, "city": "Victorville", "county": "San Bernardino", "state_code": "CA", "zip_code": "92395-4019", "lat": 34.516833, "lng": -117.312606, "order_label": "Paxlovid"}, "2595": {"provider_name": "St Mary Health Center-apple Valley", "address1": "18077 Ca-18 Suite 100", "address2": null, "city": "Apple Valley", "county": "San Bernardino", "state_code": "CA", "zip_code": "92307", "lat": 34.54035, "lng": -117.269706, "order_label": "Molnupiravir"}, "2596": {"provider_name": "Cvs Store #11035", "address1": "16049 Baseline Avenue #1", "address2": "Cvs Pharmacy", "city": "Fontana", "county": "San Bernardino", "state_code": "CA", "zip_code": "92336", "lat": 34.121323, "lng": -117.454774, "order_label": "Molnupiravir"}, "2597": {"provider_name": "Loma Linda University Childrens Ho", "address1": "11223 Campus Street", "address2": "Dock B", "city": "Loma Linda", "county": "San Bernardino", "state_code": "CA", "zip_code": "92354", "lat": 34.049577, "lng": -117.26568, "order_label": "Evusheld"}, "2598": {"provider_name": "Chino Valley Medical Center", "address1": "5451 Walnut Ave", "address2": null, "city": "Chino", "county": "San Bernardino", "state_code": "CA", "zip_code": "91710", "lat": 34.02637, "lng": -117.685988, "order_label": "Paxlovid"}, "2599": {"provider_name": "Cvs Store #09649", "address1": "33499 Yucaipa Blvd", "address2": "Cvs Pharmacy", "city": "Yucaipa", "county": "San Bernardino", "state_code": "CA", "zip_code": "92399", "lat": 34.03386, "lng": -117.073673, "order_label": "Molnupiravir"}, "2600": {"provider_name": "Cvs Store #09313", "address1": "7241 Boulder Ave", "address2": "Cvs Pharmacy", "city": "Highland", "county": "San Bernardino", "state_code": "CA", "zip_code": "92346", "lat": 34.1225876, "lng": -117.1940234, "order_label": "Molnupiravir"}, "2601": {"provider_name": "Department Of State Hospitals - Pat", "address1": "3102 E. Highland Ave.", "address2": null, "city": "Patton", "county": "San Bernardino", "state_code": "CA", "zip_code": "92369", "lat": 34.135867, "lng": -117.219827, "order_label": "Molnupiravir"}, "2602": {"provider_name": "Cvs Store #09727", "address1": "2456 S Grove Ave", "address2": "Cvs Pharmacy", "city": "Ontario", "county": "San Bernardino", "state_code": "CA", "zip_code": "91761", "lat": 34.028921, "lng": -117.628427, "order_label": "Paxlovid"}, "2603": {"provider_name": "Montclair Hospital Medical Center", "address1": "5000 San Bernardino St", "address2": null, "city": "Montclair", "county": "San Bernardino", "state_code": "CA", "zip_code": "91763", "lat": 34.077662, "lng": -117.69597, "order_label": "Paxlovid"}, "2604": {"provider_name": "Cvs Store #09705", "address1": "13181 Peyton Drive", "address2": "Cvs Pharmacy", "city": "Chino Hills", "county": "San Bernardino", "state_code": "CA", "zip_code": "91709", "lat": 34.013075, "lng": -117.7432621, "order_label": "Molnupiravir"}, "2605": {"provider_name": "Loma Linda University Medical Cente", "address1": "11223 Campus Street", "address2": "Dock B", "city": "Loma Linda", "county": "San Bernardino", "state_code": "CA", "zip_code": "92354", "lat": 34.049577, "lng": -117.26568, "order_label": "Evusheld"}, "2606": {"provider_name": "Cvs Store #09619", "address1": "9840 Sierra Ave.", "address2": "Cvs Pharmacy", "city": "Fontana", "county": "San Bernardino", "state_code": "CA", "zip_code": "92335", "lat": 34.075228, "lng": -117.435687, "order_label": "Molnupiravir"}, "2607": {"provider_name": "Cvs Store #09664", "address1": "1564 W. Base Line St.", "address2": "Cvs Pharmacy", "city": "San Bernardino", "county": "San Bernardino", "state_code": "CA", "zip_code": "92411", "lat": 34.12133, "lng": -117.320291, "order_label": "Molnupiravir"}}, "treatments": {"2578": {"Paxlovid": 40, "Molnupiravir": 280}, "2579": {"Molnupiravir": 80, "Paxlovid": 37}, "2580": {"Molnupiravir": 60, "Paxlovid": 20}, "2581": {"Paxlovid": 20, "Molnupiravir": 51}, "2582": {"Molnupiravir": 59, "Paxlovid": 20}, "2583": {"Molnupiravir": 59, "Paxlovid": 16}, "2584": {"Paxlovid": 17, "Molnupiravir": 57}, "2585": {"Molnupiravir": 59}, "2586": {"Paxlovid": 8, "Molnupiravir": 58}, "2587": {"Evusheld": 72, "Paxlovid": 20, "Molnupiravir": 60}, "2588": {"Molnupiravir": 59}, "2589": {"Molnupiravir": 59}, "2590": {"Molnupiravir": 79}, "2591": {"Molnupiravir": 80}, "2592": {"Paxlovid": 20, "Molnupiravir": 59}, "2593": {"Evusheld": 119, "Paxlovid": 20, "Molnupiravir": 60}, "2594": {"Molnupiravir": 80, "Paxlovid": 20}, "2595": {"Paxlovid": 20, "Molnupiravir": 60}, "2596": {"Molnupiravir": 79}, "2597": {"Evusheld": 192}, "2598": {"Molnupiravir": 30, "Paxlovid": 20}, "2599": {"Molnupiravir": 72}, "2600": {"Molnupiravir": 78}, "2601": {"Molnupiravir": 22}, "2602": {"Molnupiravir": 80, "Paxlovid": 20}, "2603": {"Molnupiravir": 30, "Paxlovid": 20}, "2604": {"Molnupiravir": 74}, "2605": {"Evusheld": 192}, "2606": {"Molnupiravir": 56}, "2607": {"Molnupiravir": 60}}}