{"path": ["PR", "San Juan"], "total_courses": {"2022/01/05": {"Evusheld": 24, "Molnupiravir": 120, "Paxlovid": 100}, "2022/01/07": {"Evusheld": 24, "Molnupiravir": 120, "Paxlovid": 100}, "2022/01/10": {"Evusheld": 24, "Molnupiravir": 120, "Paxlovid": 100}, "2022/01/11": {"Evusheld": 24, "Molnupiravir": 120, "Paxlovid": 100}, "2022/01/12": {"Evusheld": 24, "Molnupiravir": 120, "Paxlovid": 100}, "2022/01/13": {"Evusheld": 24, "Molnupiravir": 120, "Paxlovid": 100}}, "courses_delivered": {"2022/01/05": {"Evusheld": 0, "Molnupiravir": 1, "Paxlovid": 33}, "2022/01/07": {"Evusheld": 0, "Molnupiravir": 3, "Paxlovid": 19}, "2022/01/10": {"Evusheld": 0, "Molnupiravir": 5, "Paxlovid": 19}, "2022/01/11": {"Evusheld": 0, "Molnupiravir": 11, "Paxlovid": 33}, "2022/01/12": {"Evusheld": 0, "Molnupiravir": 11, "Paxlovid": 33}, "2022/01/13": {"Evusheld": 0, "Molnupiravir": 11, "Paxlovid": 49}}, "courses_available": {"2022/01/05": {"Evusheld": 0, "Molnupiravir": 79, "Paxlovid": 47}, "2022/01/07": {"Evusheld": 0, "Molnupiravir": 77, "Paxlovid": 61}, "2022/01/10": {"Evusheld": 0, "Molnupiravir": 75, "Paxlovid": 61}, "2022/01/11": {"Evusheld": 0, "Molnupiravir": 69, "Paxlovid": 47}, "2022/01/12": {"Evusheld": 0, "Molnupiravir": 69, "Paxlovid": 47}, "2022/01/13": {"Evusheld": 0, "Molnupiravir": 79, "Paxlovid": 31}}, "children": {}, "child_treatments": [], "providers": {"24": {"provider_name": "Walgreens Store #07520", "address1": "429 Ave Barbosa", "address2": null, "city": "San Juan", "county": "San Juan", "state_code": "PR", "zip_code": "00923", "lat": 18.4166543, "lng": -66.0429614, "order_label": "Paxlovid"}, "25": {"provider_name": "Walgreens Store #00667", "address1": "1963 Calle Loiza", "address2": null, "city": "San Juan", "county": "San Juan", "state_code": "PR", "zip_code": "00911", "lat": 18.451005, "lng": -66.05519, "order_label": "Paxlovid"}, "26": {"provider_name": "Walgreens Store #00315", "address1": "100 Grand Paseo Blvd", "address2": "Galeria Paseos Mall", "city": "Rio Piedras", "county": "San Juan", "state_code": "PR", "zip_code": "00926", "lat": 18.3569999, "lng": -66.0637126, "order_label": "Molnupiravir"}, "27": {"provider_name": "Walgreens Store #00283", "address1": "685 Calle Cesar Gonzalez", "address2": null, "city": "San Juan", "county": "San Juan", "state_code": "PR", "zip_code": "00918", "lat": 18.408443, "lng": -66.066022, "order_label": "Molnupiravir"}, "28": {"provider_name": "Walgreens Store #00030", "address1": "400 Ave La Sierra", "address2": "# 177", "city": "San Juan", "county": "San Juan", "state_code": "PR", "zip_code": "00926", "lat": 18.3695809, "lng": -66.058342, "order_label": "Paxlovid"}, "29": {"provider_name": "Walgreens Store #00363", "address1": "1115 Ave 65 Infanteria", "address2": null, "city": "San Juan", "county": "San Juan", "state_code": "PR", "zip_code": "00924", "lat": 18.3977553, "lng": -66.0048042, "order_label": "Paxlovid"}, "30": {"provider_name": "Walgreens Store #00217", "address1": "1130 Ave Ashford", "address2": null, "city": "Condado", "county": "San Juan", "state_code": "PR", "zip_code": "00907", "lat": 18.4561065, "lng": -66.0721508, "order_label": "Molnupiravir"}, "31": {"provider_name": "Walgreens Store #00891", "address1": "65 Infanteria Shopping Ctr", "address2": null, "city": "San Juan", "county": "San Juan", "state_code": "PR", "zip_code": "00925", "lat": 18.3955231, "lng": -66.0415209, "order_label": "Molnupiravir"}}, "treatments": {"24": {"Paxlovid": 7}, "25": {"Paxlovid": 1}, "26": {"Molnupiravir": 15}, "27": {"Molnupiravir": 30}, "28": {"Paxlovid": 12}, "29": {"Paxlovid": 11}, "30": {"Molnupiravir": 16}, "31": {"Molnupiravir": 18}}}