{"path": ["PR", "San Juan"], "total_courses": {"2022/01/05": {"Evusheld": 24, "Molnupiravir": 120, "Paxlovid": 100}, "2022/01/07": {"Evusheld": 24, "Molnupiravir": 120, "Paxlovid": 100}, "2022/01/10": {"Evusheld": 24, "Molnupiravir": 120, "Paxlovid": 100}, "2022/01/11": {"Evusheld": 24, "Molnupiravir": 120, "Paxlovid": 100}}, "courses_delivered": {"2022/01/05": {"Evusheld": 0, "Molnupiravir": 1, "Paxlovid": 33}, "2022/01/07": {"Evusheld": 0, "Molnupiravir": 3, "Paxlovid": 19}, "2022/01/10": {"Evusheld": 0, "Molnupiravir": 5, "Paxlovid": 19}, "2022/01/11": {"Evusheld": 0, "Molnupiravir": 11, "Paxlovid": 33}}, "courses_available": {"2022/01/05": {"Evusheld": 0, "Molnupiravir": 79, "Paxlovid": 47}, "2022/01/07": {"Evusheld": 0, "Molnupiravir": 77, "Paxlovid": 61}, "2022/01/10": {"Evusheld": 0, "Molnupiravir": 75, "Paxlovid": 61}, "2022/01/11": {"Evusheld": 0, "Molnupiravir": 69, "Paxlovid": 47}}, "children": {}, "child_treatments": [], "providers": {"2047": {"provider_name": "Walgreens Store #00283", "address1": "685 Calle Cesar Gonzalez", "address2": null, "city": "San Juan", "county": "San Juan", "state_code": "PR", "zip_code": "918", "lat": 18.408443, "lng": -66.066022, "order_label": "Molnupiravir"}, "2048": {"provider_name": "Walgreens Store #00891", "address1": "65 Infanteria Shopping Ctr", "address2": null, "city": "San Juan", "county": "San Juan", "state_code": "PR", "zip_code": "925", "lat": 18.3961593, "lng": -66.0417197, "order_label": "Molnupiravir"}, "2049": {"provider_name": "Walgreens Store #00363", "address1": "1115 Ave 65 Infanteria", "address2": null, "city": "San Juan", "county": "San Juan", "state_code": "PR", "zip_code": "924", "lat": 18.3977553, "lng": -66.0048042, "order_label": "Paxlovid"}, "2050": {"provider_name": "Walgreens Store #00315", "address1": "100 Grand Paseo Blvd", "address2": "Galeria Paseos Mall", "city": "Rio Piedras", "county": "San Juan", "state_code": "PR", "zip_code": "926", "lat": 18.3569999, "lng": -66.0637126, "order_label": "Molnupiravir"}, "2051": {"provider_name": "Walgreens Store #00667", "address1": "1963 Calle Loiza", "address2": null, "city": "San Juan", "county": "San Juan", "state_code": "PR", "zip_code": "911", "lat": 18.451005, "lng": -66.05519, "order_label": "Paxlovid"}, "2052": {"provider_name": "Walgreens Store #00217", "address1": "1130 Ave Ashford", "address2": null, "city": "Condado", "county": "San Juan", "state_code": "PR", "zip_code": "907", "lat": 18.4561065, "lng": -66.0721508, "order_label": "Molnupiravir"}, "2053": {"provider_name": "Walgreens Store #07520", "address1": "429 Ave Barbosa", "address2": null, "city": "San Juan", "county": "San Juan", "state_code": "PR", "zip_code": "923", "lat": 18.4166543, "lng": -66.0429614, "order_label": "Paxlovid"}, "2054": {"provider_name": "Walgreens Store #00030", "address1": "400 Ave La Sierra", "address2": "# 177", "city": "San Juan", "county": "San Juan", "state_code": "PR", "zip_code": "926", "lat": 18.3695809, "lng": -66.058342, "order_label": "Paxlovid"}}, "treatments": {"2047": {"Molnupiravir": 16}, "2048": {"Molnupiravir": 19}, "2049": {"Paxlovid": 11}, "2050": {"Molnupiravir": 17}, "2051": {"Paxlovid": 10}, "2052": {"Molnupiravir": 17}, "2053": {"Paxlovid": 10}, "2054": {"Paxlovid": 16}}}