{"path": ["LA", "Jefferson"], "total_courses": {"2022/01/05": {"Evusheld": 960, "Molnupiravir": 180, "Paxlovid": 80}, "2022/01/07": {"Evusheld": 480, "Molnupiravir": 280, "Paxlovid": 80}, "2022/01/10": {"Evusheld": 480, "Molnupiravir": 280, "Paxlovid": 80}, "2022/01/11": {"Evusheld": 480, "Molnupiravir": 280, "Paxlovid": 80}}, "courses_delivered": {"2022/01/05": {"Evusheld": 480, "Molnupiravir": 100, "Paxlovid": 7}, "2022/01/07": {"Evusheld": 240, "Molnupiravir": 100, "Paxlovid": 7}, "2022/01/10": {"Evusheld": 240, "Molnupiravir": 100, "Paxlovid": 8}, "2022/01/11": {"Evusheld": 240, "Molnupiravir": 100, "Paxlovid": 14}}, "courses_available": {"2022/01/05": {"Evusheld": 480, "Molnupiravir": 0, "Paxlovid": 73}, "2022/01/07": {"Evusheld": 240, "Molnupiravir": 0, "Paxlovid": 73}, "2022/01/10": {"Evusheld": 240, "Molnupiravir": 0, "Paxlovid": 72}, "2022/01/11": {"Evusheld": 240, "Molnupiravir": 0, "Paxlovid": 66}}, "children": {}, "child_treatments": [], "providers": {"539": {"provider_name": "Westbank Pharmacy", "address1": "3709 Westbank Expy", "address2": "Suite 1-c", "city": "Harvey", "county": "Jefferson", "state_code": "LA", "zip_code": "70058", "lat": 29.89644, "lng": -90.088055, "order_label": "Paxlovid"}, "540": {"provider_name": "Ochsner Medcial Center-jefferson Hi", "address1": "1516 Jefferson Highway", "address2": null, "city": "New Orleans", "county": "Jefferson", "state_code": "LA", "zip_code": "70121", "lat": 29.962771, "lng": -90.145205, "order_label": "Evusheld"}, "541": {"provider_name": "A-1 Pharmacy Metairie, Llc", "address1": "3501 Severn Ave Ste 3a", "address2": null, "city": "Metairie", "county": "Jefferson", "state_code": "LA", "zip_code": "70002", "lat": 30.012929, "lng": -90.15903, "order_label": "Paxlovid"}, "542": {"provider_name": "Roses Pharmacy", "address1": "4704 4th St", "address2": null, "city": "Marrero", "county": "Jefferson", "state_code": "LA", "zip_code": "70072", "lat": 29.903757, "lng": -90.098539, "order_label": "Paxlovid"}, "543": {"provider_name": "East Jefferson Medical Pharmacy", "address1": "1623 Williams Blvd", "address2": null, "city": "Kenner", "county": "Jefferson", "state_code": "LA", "zip_code": "70062", "lat": 29.988407, "lng": -90.242513, "order_label": "Paxlovid"}}, "treatments": {"539": {"Paxlovid": 19}, "540": {"Evusheld": 240}, "541": {"Paxlovid": 12}, "542": {"Paxlovid": 15}, "543": {"Paxlovid": 20}}}