{"path": ["LA", "Jefferson"], "total_courses": {"2022/01/05": {"Evusheld": 960, "Molnupiravir": 180, "Paxlovid": 80}, "2022/01/07": {"Evusheld": 480, "Molnupiravir": 280, "Paxlovid": 80}, "2022/01/10": {"Evusheld": 480, "Molnupiravir": 280, "Paxlovid": 80}, "2022/01/11": {"Evusheld": 480, "Molnupiravir": 280, "Paxlovid": 80}, "2022/01/12": {"Evusheld": 480, "Molnupiravir": 280, "Paxlovid": 80}, "2022/01/13": {"Evusheld": 480, "Molnupiravir": 280, "Paxlovid": 80}, "2022/01/14": {"Evusheld": 480, "Molnupiravir": 420, "Paxlovid": 120}, "2022/01/19": {"Evusheld": 480, "Molnupiravir": 560, "Paxlovid": 120}, "2022/01/21": {"Evusheld": 792, "Molnupiravir": 560, "Paxlovid": 120}, "2022/01/24": {"Evusheld": 792, "Molnupiravir": 560, "Paxlovid": 120}, "2022/01/25": {"Evusheld": 1032, "Molnupiravir": 980, "Paxlovid": 160}}, "courses_delivered": {"2022/01/05": {"Evusheld": 480, "Molnupiravir": 100, "Paxlovid": 7}, "2022/01/07": {"Evusheld": 240, "Molnupiravir": 100, "Paxlovid": 7}, "2022/01/10": {"Evusheld": 240, "Molnupiravir": 100, "Paxlovid": 8}, "2022/01/11": {"Evusheld": 240, "Molnupiravir": 100, "Paxlovid": 14}, "2022/01/12": {"Evusheld": 240, "Molnupiravir": 100, "Paxlovid": 18}, "2022/01/13": {"Evusheld": 240, "Molnupiravir": 1, "Paxlovid": 30}, "2022/01/14": {"Evusheld": 0, "Molnupiravir": 122, "Paxlovid": 56}, "2022/01/19": {"Evusheld": 0, "Molnupiravir": 207, "Paxlovid": 39}, "2022/01/21": {"Evusheld": 360, "Molnupiravir": 127, "Paxlovid": 46}, "2022/01/24": {"Evusheld": 360, "Molnupiravir": 108, "Paxlovid": 56}, "2022/01/25": {"Evusheld": 768, "Molnupiravir": 529, "Paxlovid": 103}}, "courses_available": {"2022/01/05": {"Evusheld": 480, "Molnupiravir": 0, "Paxlovid": 73}, "2022/01/07": {"Evusheld": 240, "Molnupiravir": 0, "Paxlovid": 73}, "2022/01/10": {"Evusheld": 240, "Molnupiravir": 0, "Paxlovid": 72}, "2022/01/11": {"Evusheld": 240, "Molnupiravir": 0, "Paxlovid": 66}, "2022/01/12": {"Evusheld": 240, "Molnupiravir": 60, "Paxlovid": 62}, "2022/01/13": {"Evusheld": 240, "Molnupiravir": 279, "Paxlovid": 50}, "2022/01/14": {"Evusheld": 480, "Molnupiravir": 338, "Paxlovid": 64}, "2022/01/19": {"Evusheld": 480, "Molnupiravir": 293, "Paxlovid": 81}, "2022/01/21": {"Evusheld": 432, "Molnupiravir": 373, "Paxlovid": 74}, "2022/01/24": {"Evusheld": 432, "Molnupiravir": 392, "Paxlovid": 64}, "2022/01/25": {"Evusheld": 264, "Molnupiravir": 371, "Paxlovid": 57}}, "children": {}, "child_treatments": [], "providers": {"2968": {"provider_name": "Ochsner Pharmacy And Wellness- Main", "address1": "1514 Jefferson Hwy", "address2": null, "city": "New Orleans", "county": "Jefferson", "state_code": "LA", "zip_code": "70121", "lat": 29.962821, "lng": -90.145516}, "2969": {"provider_name": "Cvs Store #08999", "address1": "2105 Cleary Ave.", "address2": "Cvs Pharmacy", "city": "Metairie", "county": "Jefferson", "state_code": "LA", "zip_code": "70001", "lat": 29.993651, "lng": -90.171377}, "2970": {"provider_name": "Walmart Pharmacy #911", "address1": "4810 Lapalco Blvd", "address2": null, "city": "Marrero", "county": "Jefferson", "state_code": "LA", "zip_code": "70072", "lat": 29.875088, "lng": -90.093054}, "2971": {"provider_name": "Walgreens Store #13679", "address1": "1717 Veterans Memorial Blvd", "address2": null, "city": "Metairie", "county": "Jefferson", "state_code": "LA", "zip_code": "70005", "lat": 30.002163, "lng": -90.142112}, "2972": {"provider_name": "Cvs Store #08921", "address1": "2831 Belle Chasse Hwy.", "address2": "Cvs Pharmacy", "city": "Terrytown", "county": "Jefferson", "state_code": "LA", "zip_code": "70056", "lat": 29.881119, "lng": -90.020951}, "2973": {"provider_name": "Roses Pharmacy", "address1": "4704 4th St", "address2": null, "city": "Marrero", "county": "Jefferson", "state_code": "LA", "zip_code": "70072", "lat": 29.903757, "lng": -90.098539}, "2974": {"provider_name": "Ochsner Pharmacy And Wellness West", "address1": "2500 Belle Chasse Hwy, Suite T1224", "address2": null, "city": "Gretna", "county": "Jefferson", "state_code": "LA", "zip_code": "70056", "lat": 29.88582, "lng": -90.027433}, "2975": {"provider_name": "Walmart Pharmacy #2706", "address1": "1501 Manhattan Blvd", "address2": null, "city": "Harvey", "county": "Jefferson", "state_code": "LA", "zip_code": "70058", "lat": 29.894148, "lng": -90.059931}, "2976": {"provider_name": "Walgreens Store #07261", "address1": "457 Lapalco Blvd", "address2": null, "city": "Gretna", "county": "Jefferson", "state_code": "LA", "zip_code": "70056", "lat": 29.879997, "lng": -90.030494}, "2977": {"provider_name": "Ochsner Medcial Center-jefferson Hi", "address1": "1516 Jefferson Highway", "address2": null, "city": "New Orleans", "county": "Jefferson", "state_code": "LA", "zip_code": "70121", "lat": 29.962771, "lng": -90.145205}, "2978": {"provider_name": "Cvs Store #05543", "address1": "2850 Highway 90 West", "address2": "Cvs Pharmacy", "city": "Avondale", "county": "Jefferson", "state_code": "LA", "zip_code": "70094", "lat": 29.909827, "lng": -90.20093}, "2979": {"provider_name": "Walmart Pharmacy #989", "address1": "8912 Veterans Memorial Blvd", "address2": null, "city": "Metairie", "county": "Jefferson", "state_code": "LA", "zip_code": "70003", "lat": 30.003741, "lng": -90.229186}, "2980": {"provider_name": "Westbank Pharmacy", "address1": "3709 Westbank Expy", "address2": "Suite 1-c", "city": "Harvey", "county": "Jefferson", "state_code": "LA", "zip_code": "70058", "lat": 29.89644, "lng": -90.088055}, "2981": {"provider_name": "Cvs Store #04752", "address1": "1203 Westbank Expressway", "address2": "Cvs Pharmacy", "city": "Westwego", "county": "Jefferson", "state_code": "LA", "zip_code": "70094", "lat": 29.897295, "lng": -90.138799}, "2982": {"provider_name": "A-1 Pharmacy Metairie, Llc", "address1": "3501 Severn Ave Ste 3a", "address2": null, "city": "Metairie", "county": "Jefferson", "state_code": "LA", "zip_code": "70002", "lat": 30.012929, "lng": -90.15903}, "2983": {"provider_name": "Walgreens Store #05516", "address1": "4600 Westbank Expy", "address2": null, "city": "Marrero", "county": "Jefferson", "state_code": "LA", "zip_code": "70072", "lat": 29.895359, "lng": -90.096644}, "2984": {"provider_name": "Walgreens Store #15571", "address1": "4501 Airline Dr", "address2": null, "city": "Metairie", "county": "Jefferson", "state_code": "LA", "zip_code": "70001", "lat": 29.975575, "lng": -90.178548}, "2985": {"provider_name": "Walgreens Store #15200", "address1": "2001 Carol Sue Ave", "address2": null, "city": "Gretna", "county": "Jefferson", "state_code": "LA", "zip_code": "70056", "lat": 29.900709, "lng": -90.030264}, "2986": {"provider_name": "Walgreens Store #05230", "address1": "818 Westbank Expy", "address2": null, "city": "Westwego", "county": "Jefferson", "state_code": "LA", "zip_code": "70094", "lat": 29.898166, "lng": -90.144406}}, "treatments": {"2968": {"Paxlovid": 11}, "2969": {"Molnupiravir": 37}, "2970": {"Molnupiravir": 20}, "2971": {"Molnupiravir": 40}, "2972": {"Molnupiravir": 20}, "2973": {"Paxlovid": 9}, "2974": {"Molnupiravir": 20, "Paxlovid": 19}, "2975": {"Molnupiravir": 20}, "2976": {"Molnupiravir": 40}, "2977": {"Evusheld": 264}, "2978": {"Molnupiravir": 1}, "2979": {"Molnupiravir": 20}, "2980": {"Paxlovid": 13}, "2981": {"Molnupiravir": 19}, "2982": {"Paxlovid": 5}, "2983": {"Molnupiravir": 16}, "2984": {"Molnupiravir": 20}, "2985": {"Molnupiravir": 59}, "2986": {"Molnupiravir": 39}}}