{"path": ["LA", "Jefferson"], "total_courses": {"2022/01/05": {"Evusheld": 960, "Molnupiravir": 180, "Paxlovid": 80}, "2022/01/07": {"Evusheld": 480, "Molnupiravir": 280, "Paxlovid": 80}, "2022/01/10": {"Evusheld": 480, "Molnupiravir": 280, "Paxlovid": 80}, "2022/01/11": {"Evusheld": 480, "Molnupiravir": 280, "Paxlovid": 80}, "2022/01/12": {"Evusheld": 480, "Molnupiravir": 280, "Paxlovid": 80}, "2022/01/13": {"Evusheld": 480, "Molnupiravir": 280, "Paxlovid": 80}}, "courses_delivered": {"2022/01/05": {"Evusheld": 480, "Molnupiravir": 100, "Paxlovid": 7}, "2022/01/07": {"Evusheld": 240, "Molnupiravir": 100, "Paxlovid": 7}, "2022/01/10": {"Evusheld": 240, "Molnupiravir": 100, "Paxlovid": 8}, "2022/01/11": {"Evusheld": 240, "Molnupiravir": 100, "Paxlovid": 14}, "2022/01/12": {"Evusheld": 240, "Molnupiravir": 100, "Paxlovid": 18}, "2022/01/13": {"Evusheld": 240, "Molnupiravir": 1, "Paxlovid": 30}}, "courses_available": {"2022/01/05": {"Evusheld": 480, "Molnupiravir": 0, "Paxlovid": 73}, "2022/01/07": {"Evusheld": 240, "Molnupiravir": 0, "Paxlovid": 73}, "2022/01/10": {"Evusheld": 240, "Molnupiravir": 0, "Paxlovid": 72}, "2022/01/11": {"Evusheld": 240, "Molnupiravir": 0, "Paxlovid": 66}, "2022/01/12": {"Evusheld": 240, "Molnupiravir": 60, "Paxlovid": 62}, "2022/01/13": {"Evusheld": 240, "Molnupiravir": 279, "Paxlovid": 50}}, "children": {}, "child_treatments": [], "providers": {"611": {"provider_name": "Cvs Store #08921", "address1": "2831 Belle Chasse Hwy.", "address2": "Cvs Pharmacy", "city": "Terrytown", "county": "Jefferson", "state_code": "LA", "zip_code": "70056", "lat": 29.881119, "lng": -90.020951, "order_label": "Molnupiravir"}, "612": {"provider_name": "Cvs Store #08999", "address1": "2105 Cleary Ave.", "address2": "Cvs Pharmacy", "city": "Metairie", "county": "Jefferson", "state_code": "LA", "zip_code": "70001", "lat": 29.993651, "lng": -90.171377, "order_label": "Molnupiravir"}, "613": {"provider_name": "Walgreens Store #15200", "address1": "2001 Carol Sue Ave", "address2": null, "city": "Gretna", "county": "Jefferson", "state_code": "LA", "zip_code": "70056", "lat": 29.900709, "lng": -90.030264, "order_label": "Molnupiravir"}, "614": {"provider_name": "Roses Pharmacy", "address1": "4704 4th St", "address2": null, "city": "Marrero", "county": "Jefferson", "state_code": "LA", "zip_code": "70072", "lat": 29.903757, "lng": -90.098539, "order_label": "Paxlovid"}, "615": {"provider_name": "A-1 Pharmacy Metairie, Llc", "address1": "3501 Severn Ave Ste 3a", "address2": null, "city": "Metairie", "county": "Jefferson", "state_code": "LA", "zip_code": "70002", "lat": 30.012929, "lng": -90.15903, "order_label": "Paxlovid"}, "616": {"provider_name": "Cvs Store #04752", "address1": "1203 Westbank Expressway", "address2": "Cvs Pharmacy", "city": "Westwego", "county": "Jefferson", "state_code": "LA", "zip_code": "70094", "lat": 29.897295, "lng": -90.138799, "order_label": "Molnupiravir"}, "617": {"provider_name": "Walgreens Store #13679", "address1": "1717 Veterans Memorial Blvd", "address2": null, "city": "Metairie", "county": "Jefferson", "state_code": "LA", "zip_code": "70005", "lat": 30.002163, "lng": -90.142112, "order_label": "Molnupiravir"}, "618": {"provider_name": "East Jefferson Medical Pharmacy", "address1": "1623 Williams Blvd", "address2": null, "city": "Kenner", "county": "Jefferson", "state_code": "LA", "zip_code": "70062", "lat": 29.988407, "lng": -90.242513, "order_label": "Paxlovid"}, "619": {"provider_name": "Ochsner Pharmacy And Wellness- Main", "address1": "1514 Jefferson Hwy", "address2": null, "city": "New Orleans", "county": "Jefferson", "state_code": "LA", "zip_code": "70121", "lat": 29.962821, "lng": -90.145516, "order_label": "Molnupiravir"}, "620": {"provider_name": "Ochsner Pharmacy And Wellness West", "address1": "2500 Belle Chasse Hwy, Suite T1224", "address2": null, "city": "Gretna", "county": "Jefferson", "state_code": "LA", "zip_code": "70056", "lat": 29.88582, "lng": -90.027433, "order_label": "Molnupiravir"}, "621": {"provider_name": "Walgreens Store #05516", "address1": "4600 Westbank Expy", "address2": null, "city": "Marrero", "county": "Jefferson", "state_code": "LA", "zip_code": "70072", "lat": 29.895359, "lng": -90.096644, "order_label": "Molnupiravir"}, "622": {"provider_name": "Walgreens Store #05230", "address1": "818 Westbank Expy", "address2": null, "city": "Westwego", "county": "Jefferson", "state_code": "LA", "zip_code": "70094", "lat": 29.898166, "lng": -90.144406, "order_label": "Molnupiravir"}, "623": {"provider_name": "Cvs Store #05543", "address1": "2850 Highway 90 West", "address2": "Cvs Pharmacy", "city": "Avondale", "county": "Jefferson", "state_code": "LA", "zip_code": "70094", "lat": 29.909827, "lng": -90.20093, "order_label": "Molnupiravir"}, "624": {"provider_name": "Westbank Pharmacy", "address1": "3709 Westbank Expy", "address2": "Suite 1-c", "city": "Harvey", "county": "Jefferson", "state_code": "LA", "zip_code": "70058", "lat": 29.89644, "lng": -90.088055, "order_label": "Paxlovid"}, "625": {"provider_name": "Ochsner Medcial Center-jefferson Hi", "address1": "1516 Jefferson Highway", "address2": null, "city": "New Orleans", "county": "Jefferson", "state_code": "LA", "zip_code": "70121", "lat": 29.962771, "lng": -90.145205, "order_label": "Evusheld"}, "626": {"provider_name": "Walgreens Store #07261", "address1": "457 Lapalco Blvd", "address2": null, "city": "Gretna", "county": "Jefferson", "state_code": "LA", "zip_code": "70056", "lat": 29.879997, "lng": -90.030494, "order_label": "Molnupiravir"}}, "treatments": {"611": {"Molnupiravir": 20}, "612": {"Molnupiravir": 80}, "613": {"Molnupiravir": 20}, "614": {"Paxlovid": 12}, "615": {"Paxlovid": 9}, "616": {"Molnupiravir": 20}, "617": {"Molnupiravir": 20}, "618": {"Paxlovid": 10}, "619": {"Molnupiravir": 20}, "620": {"Molnupiravir": 20}, "621": {"Molnupiravir": 19}, "622": {"Molnupiravir": 20}, "623": {"Molnupiravir": 20}, "624": {"Paxlovid": 19}, "625": {"Evusheld": 240}, "626": {"Molnupiravir": 20}}}