{"path": ["LA", "Jefferson"], "total_courses": {"2022/01/05": {"Evusheld": 960, "Molnupiravir": 180, "Paxlovid": 80}, "2022/01/07": {"Evusheld": 480, "Molnupiravir": 280, "Paxlovid": 80}, "2022/01/10": {"Evusheld": 480, "Molnupiravir": 280, "Paxlovid": 80}}, "courses_delivered": {"2022/01/05": {"Evusheld": 480, "Molnupiravir": 100, "Paxlovid": 7}, "2022/01/07": {"Evusheld": 240, "Molnupiravir": 100, "Paxlovid": 7}, "2022/01/10": {"Evusheld": 240, "Molnupiravir": 100, "Paxlovid": 8}}, "courses_available": {"2022/01/05": {"Evusheld": 480, "Molnupiravir": 0, "Paxlovid": 73}, "2022/01/07": {"Evusheld": 240, "Molnupiravir": 0, "Paxlovid": 73}, "2022/01/10": {"Evusheld": 240, "Molnupiravir": 0, "Paxlovid": 72}}, "children": {}, "child_treatments": [], "providers": {"1267": {"provider_name": "Roses Pharmacy", "address1": "4704 4th St", "address2": null, "city": "Marrero", "county": "Jefferson", "state_code": "LA", "zip_code": "70072", "lat": 29.903757, "lng": -90.098539, "order_label": "Paxlovid"}, "1268": {"provider_name": "East Jefferson Medical Pharmacy", "address1": "1623 Williams Blvd", "address2": null, "city": "Kenner", "county": "Jefferson", "state_code": "LA", "zip_code": "70062", "lat": 29.988407, "lng": -90.242513, "order_label": "Paxlovid"}, "1269": {"provider_name": "Ochsner Medcial Center-jefferson Hi", "address1": "1516 Jefferson Highway", "address2": null, "city": "New Orleans", "county": "Jefferson", "state_code": "LA", "zip_code": "70121", "lat": 29.962771, "lng": -90.145205, "order_label": "Evusheld"}, "1270": {"provider_name": "Westbank Pharmacy", "address1": "3709 Westbank Expy", "address2": "Suite 1-c", "city": "Harvey", "county": "Jefferson", "state_code": "LA", "zip_code": "70058", "lat": 29.89644, "lng": -90.088055, "order_label": "Paxlovid"}, "1271": {"provider_name": "A-1 Pharmacy Metairie, Llc", "address1": "3501 Severn Ave Ste 3a", "address2": null, "city": "Metairie", "county": "Jefferson", "state_code": "LA", "zip_code": "70002", "lat": 30.012929, "lng": -90.15903, "order_label": "Paxlovid"}}, "treatments": {"1267": {"Paxlovid": 16}, "1268": {"Paxlovid": 20}, "1269": {"Evusheld": 240}, "1270": {"Paxlovid": 20}, "1271": {"Paxlovid": 16}}}