{"path": ["LA", "Jefferson"], "total_courses": {"2022/01/05": {"Evusheld": 960, "Molnupiravir": 180, "Paxlovid": 80}, "2022/01/07": {"Evusheld": 480, "Molnupiravir": 280, "Paxlovid": 80}, "2022/01/10": {"Evusheld": 480, "Molnupiravir": 280, "Paxlovid": 80}, "2022/01/11": {"Evusheld": 480, "Molnupiravir": 280, "Paxlovid": 80}, "2022/01/12": {"Evusheld": 480, "Molnupiravir": 280, "Paxlovid": 80}, "2022/01/13": {"Evusheld": 480, "Molnupiravir": 280, "Paxlovid": 80}, "2022/01/14": {"Evusheld": 480, "Molnupiravir": 420, "Paxlovid": 120}, "2022/01/19": {"Evusheld": 480, "Molnupiravir": 560, "Paxlovid": 120}, "2022/01/21": {"Evusheld": 792, "Molnupiravir": 560, "Paxlovid": 120}}, "courses_delivered": {"2022/01/05": {"Evusheld": 480, "Molnupiravir": 100, "Paxlovid": 7}, "2022/01/07": {"Evusheld": 240, "Molnupiravir": 100, "Paxlovid": 7}, "2022/01/10": {"Evusheld": 240, "Molnupiravir": 100, "Paxlovid": 8}, "2022/01/11": {"Evusheld": 240, "Molnupiravir": 100, "Paxlovid": 14}, "2022/01/12": {"Evusheld": 240, "Molnupiravir": 100, "Paxlovid": 18}, "2022/01/13": {"Evusheld": 240, "Molnupiravir": 1, "Paxlovid": 30}, "2022/01/14": {"Evusheld": 0, "Molnupiravir": 122, "Paxlovid": 56}, "2022/01/19": {"Evusheld": 0, "Molnupiravir": 207, "Paxlovid": 39}, "2022/01/21": {"Evusheld": 360, "Molnupiravir": 127, "Paxlovid": 46}}, "courses_available": {"2022/01/05": {"Evusheld": 480, "Molnupiravir": 0, "Paxlovid": 73}, "2022/01/07": {"Evusheld": 240, "Molnupiravir": 0, "Paxlovid": 73}, "2022/01/10": {"Evusheld": 240, "Molnupiravir": 0, "Paxlovid": 72}, "2022/01/11": {"Evusheld": 240, "Molnupiravir": 0, "Paxlovid": 66}, "2022/01/12": {"Evusheld": 240, "Molnupiravir": 60, "Paxlovid": 62}, "2022/01/13": {"Evusheld": 240, "Molnupiravir": 279, "Paxlovid": 50}, "2022/01/14": {"Evusheld": 480, "Molnupiravir": 338, "Paxlovid": 64}, "2022/01/19": {"Evusheld": 480, "Molnupiravir": 293, "Paxlovid": 81}, "2022/01/21": {"Evusheld": 432, "Molnupiravir": 373, "Paxlovid": 74}}, "children": {}, "child_treatments": [], "providers": {"1089": {"provider_name": "Walgreens Store #05230", "address1": "818 Westbank Expy", "address2": null, "city": "Westwego", "county": "Jefferson", "state_code": "LA", "zip_code": "70094", "lat": 29.898166, "lng": -90.144406}, "1090": {"provider_name": "Walmart Pharmacy #911", "address1": "4810 Lapalco Blvd", "address2": null, "city": "Marrero", "county": "Jefferson", "state_code": "LA", "zip_code": "70072", "lat": 29.875088, "lng": -90.093054}, "1091": {"provider_name": "Walgreens Store #13679", "address1": "1717 Veterans Memorial Blvd", "address2": null, "city": "Metairie", "county": "Jefferson", "state_code": "LA", "zip_code": "70005", "lat": 30.002163, "lng": -90.142112}, "1092": {"provider_name": "Walgreens Store #05516", "address1": "4600 Westbank Expy", "address2": null, "city": "Marrero", "county": "Jefferson", "state_code": "LA", "zip_code": "70072", "lat": 29.895359, "lng": -90.096644}, "1093": {"provider_name": "Walgreens Store #07261", "address1": "457 Lapalco Blvd", "address2": null, "city": "Gretna", "county": "Jefferson", "state_code": "LA", "zip_code": "70056", "lat": 29.879997, "lng": -90.030494}, "1094": {"provider_name": "East Jefferson Medical Pharmacy", "address1": "1623 Williams Blvd", "address2": null, "city": "Kenner", "county": "Jefferson", "state_code": "LA", "zip_code": "70062", "lat": 29.988407, "lng": -90.242513}, "1095": {"provider_name": "Ochsner Pharmacy And Wellness West", "address1": "2500 Belle Chasse Hwy, Suite T1224", "address2": null, "city": "Gretna", "county": "Jefferson", "state_code": "LA", "zip_code": "70056", "lat": 29.88582, "lng": -90.027433}, "1096": {"provider_name": "Walgreens Store #15200", "address1": "2001 Carol Sue Ave", "address2": null, "city": "Gretna", "county": "Jefferson", "state_code": "LA", "zip_code": "70056", "lat": 29.900709, "lng": -90.030264}, "1097": {"provider_name": "Cvs Store #08999", "address1": "2105 Cleary Ave.", "address2": "Cvs Pharmacy", "city": "Metairie", "county": "Jefferson", "state_code": "LA", "zip_code": "70001", "lat": 29.993651, "lng": -90.171377}, "1098": {"provider_name": "Westbank Pharmacy", "address1": "3709 Westbank Expy", "address2": "Suite 1-c", "city": "Harvey", "county": "Jefferson", "state_code": "LA", "zip_code": "70058", "lat": 29.89644, "lng": -90.088055}, "1099": {"provider_name": "Cvs Store #08921", "address1": "2831 Belle Chasse Hwy.", "address2": "Cvs Pharmacy", "city": "Terrytown", "county": "Jefferson", "state_code": "LA", "zip_code": "70056", "lat": 29.881119, "lng": -90.020951}, "1100": {"provider_name": "Ochsner Pharmacy And Wellness- Main", "address1": "1514 Jefferson Hwy", "address2": null, "city": "New Orleans", "county": "Jefferson", "state_code": "LA", "zip_code": "70121", "lat": 29.962821, "lng": -90.145516}, "1101": {"provider_name": "Ochsner Medcial Center-jefferson Hi", "address1": "1516 Jefferson Highway", "address2": null, "city": "New Orleans", "county": "Jefferson", "state_code": "LA", "zip_code": "70121", "lat": 29.962771, "lng": -90.145205}, "1102": {"provider_name": "Cvs Store #05543", "address1": "2850 Highway 90 West", "address2": "Cvs Pharmacy", "city": "Avondale", "county": "Jefferson", "state_code": "LA", "zip_code": "70094", "lat": 29.909827, "lng": -90.20093}, "1103": {"provider_name": "Walmart Pharmacy #2706", "address1": "1501 Manhattan Blvd", "address2": null, "city": "Harvey", "county": "Jefferson", "state_code": "LA", "zip_code": "70058", "lat": 29.894148, "lng": -90.059931}, "1104": {"provider_name": "A-1 Pharmacy Metairie, Llc", "address1": "3501 Severn Ave Ste 3a", "address2": null, "city": "Metairie", "county": "Jefferson", "state_code": "LA", "zip_code": "70002", "lat": 30.012929, "lng": -90.15903}, "1105": {"provider_name": "Roses Pharmacy", "address1": "4704 4th St", "address2": null, "city": "Marrero", "county": "Jefferson", "state_code": "LA", "zip_code": "70072", "lat": 29.903757, "lng": -90.098539}, "1106": {"provider_name": "Cvs Store #04752", "address1": "1203 Westbank Expressway", "address2": "Cvs Pharmacy", "city": "Westwego", "county": "Jefferson", "state_code": "LA", "zip_code": "70094", "lat": 29.897295, "lng": -90.138799}}, "treatments": {"1089": {"Molnupiravir": 39}, "1090": {"Molnupiravir": 20}, "1091": {"Molnupiravir": 40}, "1092": {"Molnupiravir": 16}, "1093": {"Molnupiravir": 40}, "1094": {"Paxlovid": 6}, "1095": {"Paxlovid": 19, "Molnupiravir": 20}, "1096": {"Molnupiravir": 59}, "1097": {"Molnupiravir": 39}, "1098": {"Paxlovid": 18}, "1099": {"Molnupiravir": 20}, "1100": {"Molnupiravir": 20, "Paxlovid": 17}, "1101": {"Evusheld": 432}, "1102": {"Molnupiravir": 20}, "1103": {"Molnupiravir": 20}, "1104": {"Paxlovid": 5}, "1105": {"Paxlovid": 9}, "1106": {"Molnupiravir": 20}}}