{"path": ["CA", "Kern"], "total_courses": {"2022/01/05": {"Evusheld": 672, "Molnupiravir": 740, "Paxlovid": 140}, "2022/01/07": {"Evusheld": 336, "Molnupiravir": 740, "Paxlovid": 140}, "2022/01/10": {"Evusheld": 336, "Molnupiravir": 740, "Paxlovid": 140}, "2022/01/11": {"Evusheld": 648, "Molnupiravir": 740, "Paxlovid": 140}, "2022/01/12": {"Evusheld": 648, "Molnupiravir": 740, "Paxlovid": 140}, "2022/01/13": {"Evusheld": 648, "Molnupiravir": 740, "Paxlovid": 140}, "2022/01/14": {"Evusheld": 648, "Molnupiravir": 980, "Paxlovid": 180}, "2022/01/19": {"Evusheld": 1176, "Molnupiravir": 1420, "Paxlovid": 300}, "2022/01/21": {"Evusheld": 1176, "Molnupiravir": 1460, "Paxlovid": 320}}, "courses_delivered": {"2022/01/05": {"Evusheld": 336, "Molnupiravir": 0, "Paxlovid": 7}, "2022/01/07": {"Evusheld": 168, "Molnupiravir": 0, "Paxlovid": 10}, "2022/01/10": {"Evusheld": 168, "Molnupiravir": 0, "Paxlovid": 16}, "2022/01/11": {"Evusheld": 480, "Molnupiravir": 0, "Paxlovid": 28}, "2022/01/12": {"Evusheld": 480, "Molnupiravir": 0, "Paxlovid": 35}, "2022/01/13": {"Evusheld": 312, "Molnupiravir": 0, "Paxlovid": 43}, "2022/01/14": {"Evusheld": 0, "Molnupiravir": 240, "Paxlovid": 51}, "2022/01/19": {"Evusheld": 528, "Molnupiravir": 482, "Paxlovid": 71}, "2022/01/21": {"Evusheld": 528, "Molnupiravir": 63, "Paxlovid": 100}}, "courses_available": {"2022/01/05": {"Evusheld": 336, "Molnupiravir": 440, "Paxlovid": 153}, "2022/01/07": {"Evusheld": 168, "Molnupiravir": 740, "Paxlovid": 149}, "2022/01/10": {"Evusheld": 168, "Molnupiravir": 740, "Paxlovid": 124}, "2022/01/11": {"Evusheld": 168, "Molnupiravir": 741, "Paxlovid": 112}, "2022/01/12": {"Evusheld": 168, "Molnupiravir": 801, "Paxlovid": 105}, "2022/01/13": {"Evusheld": 336, "Molnupiravir": 801, "Paxlovid": 97}, "2022/01/14": {"Evusheld": 648, "Molnupiravir": 801, "Paxlovid": 89}, "2022/01/19": {"Evusheld": 648, "Molnupiravir": 718, "Paxlovid": 109}, "2022/01/21": {"Evusheld": 648, "Molnupiravir": 1397, "Paxlovid": 220}}, "children": {}, "child_treatments": [], "providers": {"3557": {"provider_name": "Cvs Store #09975", "address1": "4400 Coffee Rd", "address2": "Cvs Pharmacy", "city": "Bakersfield", "county": "Kern", "state_code": "CA", "zip_code": "93308", "lat": 35.399424, "lng": -119.092171, "order_label": "Molnupiravir"}, "3558": {"provider_name": "Kern County Hospital Authority", "address1": "1111 Columbus St.", "address2": null, "city": "Bakersfield", "county": "Kern", "state_code": "CA", "zip_code": "93305", "lat": 35.397445, "lng": -118.982482, "order_label": "Evusheld"}, "3559": {"provider_name": "Rite Aid 05807", "address1": "2501 Highway 46", "address2": null, "city": "Wasco", "county": "Kern", "state_code": "CA", "zip_code": "93280-2919", "lat": 35.601535, "lng": -119.354219, "order_label": "Molnupiravir"}, "3560": {"provider_name": "The Drug Store", "address1": "111 Piute Dr", "address2": null, "city": "Kernville", "county": "Kern", "state_code": "CA", "zip_code": "93238", "lat": 35.755357, "lng": -118.425244, "order_label": "Molnupiravir"}, "3561": {"provider_name": "Cvs Store #10921", "address1": "6601 Stine Road", "address2": "Cvs Pharmacy", "city": "Bakersfield", "county": "Kern", "state_code": "CA", "zip_code": "93313", "lat": 35.295361, "lng": -119.056773, "order_label": "Molnupiravir"}, "3562": {"provider_name": "Rite Aid 05845", "address1": "101 North China Lake Blvd", "address2": null, "city": "Ridgecrest", "county": "Kern", "state_code": "CA", "zip_code": "93555-3544", "lat": 35.622798, "lng": -117.669981, "order_label": "Molnupiravir"}, "3563": {"provider_name": "Cvs Store #05495", "address1": "5184 Stockdale Hwy.", "address2": "Cvs Pharmacy", "city": "Bakersfield", "county": "Kern", "state_code": "CA", "zip_code": "93309", "lat": 35.354285, "lng": -119.059214, "order_label": "Paxlovid"}, "3564": {"provider_name": "Rite Aid 05794", "address1": "1809 Cecil Avenue", "address2": null, "city": "Delano", "county": "Kern", "state_code": "CA", "zip_code": "93215-1519", "lat": 35.775915, "lng": -119.231188, "order_label": "Molnupiravir"}, "3565": {"provider_name": "Rite Aid 05800", "address1": "1076 Kern St", "address2": null, "city": "Taft", "county": "Kern", "state_code": "CA", "zip_code": "93268", "lat": 35.145809, "lng": -119.467839, "order_label": "Molnupiravir"}, "3566": {"provider_name": "Rite Aid 06489", "address1": "8008 Panama Rd", "address2": null, "city": "Lamont", "county": "Kern", "state_code": "CA", "zip_code": "93241-1322", "lat": 35.266965, "lng": -118.915127, "order_label": "Paxlovid"}, "3567": {"provider_name": "Rite Aid 05797", "address1": "5530 Lake Isabella Blvd", "address2": "Ste E", "city": "Lake Isabella", "county": "Kern", "state_code": "CA", "zip_code": "93240", "lat": 35.617778, "lng": -118.477689, "order_label": "Paxlovid"}, "3568": {"provider_name": "Cvs Store #02768", "address1": "6500 S. Union Ave.", "address2": "Cvs Pharmacy", "city": "Bakersfield", "county": "Kern", "state_code": "CA", "zip_code": "93307", "lat": 35.295249, "lng": -119.003, "order_label": "Molnupiravir"}, "3569": {"provider_name": "Rite Aid 05847", "address1": "811 Tucker Road", "address2": null, "city": "Tehachapi", "county": "Kern", "state_code": "CA", "zip_code": "93561-2510", "lat": 35.123662, "lng": -118.467766, "order_label": "Molnupiravir"}, "3570": {"provider_name": "Rite Aid 06302", "address1": "150 East Lerdo Highway", "address2": null, "city": "Shafter", "county": "Kern", "state_code": "CA", "zip_code": "93263-2702", "lat": 35.499829, "lng": -119.277099, "order_label": "Molnupiravir"}, "3571": {"provider_name": "Rite Aid 06768", "address1": "150 W Kern Ave", "address2": null, "city": "Mc Farland", "county": "Kern", "state_code": "CA", "zip_code": "93250", "lat": 35.678018, "lng": -119.228597, "order_label": "Molnupiravir"}, "3572": {"provider_name": "Rite Aid 05846", "address1": "2938 West Rosamond Blvd.", "address2": null, "city": "Rosamond", "county": "Kern", "state_code": "CA", "zip_code": "93560-6266", "lat": 34.864104, "lng": -118.184251, "order_label": "Paxlovid"}, "3573": {"provider_name": "Cvs Store #10810", "address1": "505 #b Bear Mountain Blvd", "address2": "Cvs Pharmacy", "city": "Arvin", "county": "Kern", "state_code": "CA", "zip_code": "93203", "lat": 35.209007, "lng": -118.830947, "order_label": "Molnupiravir"}}, "treatments": {"3557": {"Paxlovid": 19, "Molnupiravir": 120}, "3558": {"Evusheld": 648}, "3559": {"Paxlovid": 13, "Molnupiravir": 100}, "3560": {"Paxlovid": 19, "Molnupiravir": 60}, "3561": {"Molnupiravir": 77}, "3562": {"Paxlovid": 20, "Molnupiravir": 60}, "3563": {"Molnupiravir": 100, "Paxlovid": 19}, "3564": {"Paxlovid": 14, "Molnupiravir": 100}, "3565": {"Paxlovid": 20, "Molnupiravir": 40}, "3566": {"Molnupiravir": 100, "Paxlovid": 19}, "3567": {"Molnupiravir": 60, "Paxlovid": 20}, "3568": {"Molnupiravir": 100}, "3569": {"Paxlovid": 20, "Molnupiravir": 60}, "3570": {"Molnupiravir": 100}, "3571": {"Paxlovid": 20, "Molnupiravir": 100}, "3572": {"Molnupiravir": 120, "Paxlovid": 17}, "3573": {"Molnupiravir": 100}}}