{"path": ["MI", "Wayne"], "total_courses": {"2022/01/05": {"Evusheld": 1896, "Molnupiravir": 560, "Paxlovid": 200}, "2022/01/07": {"Evusheld": 1608, "Molnupiravir": 560, "Paxlovid": 200}, "2022/01/10": {"Evusheld": 2544, "Molnupiravir": 560, "Paxlovid": 200}, "2022/01/11": {"Evusheld": 1608, "Molnupiravir": 560, "Paxlovid": 220}, "2022/01/12": {"Evusheld": 1608, "Molnupiravir": 560, "Paxlovid": 220}, "2022/01/13": {"Evusheld": 1608, "Molnupiravir": 560, "Paxlovid": 240}, "2022/01/14": {"Evusheld": 2376, "Molnupiravir": 560, "Paxlovid": 340}, "2022/01/19": {"Evusheld": 2376, "Molnupiravir": 560, "Paxlovid": 340}}, "courses_delivered": {"2022/01/05": {"Evusheld": 504, "Molnupiravir": 200, "Paxlovid": 3}, "2022/01/07": {"Evusheld": 1000, "Molnupiravir": 221, "Paxlovid": 5}, "2022/01/10": {"Evusheld": 1456, "Molnupiravir": 222, "Paxlovid": 8}, "2022/01/11": {"Evusheld": 937, "Molnupiravir": 265, "Paxlovid": 10}, "2022/01/12": {"Evusheld": 956, "Molnupiravir": 106, "Paxlovid": 10}, "2022/01/13": {"Evusheld": 788, "Molnupiravir": 107, "Paxlovid": 32}, "2022/01/14": {"Evusheld": 1477, "Molnupiravir": 87, "Paxlovid": 55}, "2022/01/19": {"Evusheld": 1291, "Molnupiravir": 40, "Paxlovid": 64}}, "courses_available": {"2022/01/05": {"Evusheld": 120, "Molnupiravir": 160, "Paxlovid": 117}, "2022/01/07": {"Evusheld": 584, "Molnupiravir": 259, "Paxlovid": 115}, "2022/01/10": {"Evusheld": 1064, "Molnupiravir": 298, "Paxlovid": 112}, "2022/01/11": {"Evusheld": 647, "Molnupiravir": 255, "Paxlovid": 110}, "2022/01/12": {"Evusheld": 628, "Molnupiravir": 414, "Paxlovid": 110}, "2022/01/13": {"Evusheld": 796, "Molnupiravir": 413, "Paxlovid": 108}, "2022/01/14": {"Evusheld": 875, "Molnupiravir": 433, "Paxlovid": 165}, "2022/01/19": {"Evusheld": 1061, "Molnupiravir": 480, "Paxlovid": 156}}, "children": {}, "child_treatments": [], "providers": {"2861": {"provider_name": "Meijer Store 188", "address1": "13000 Middlebelt Rd", "address2": "Deliver To Pharmacy", "city": "Livonia", "county": "Wayne", "state_code": "MI", "zip_code": "48150", "lat": 42.378515, "lng": -83.33347, "order_label": "Molnupiravir"}, "2862": {"provider_name": "Meijer Store 233", "address1": "3565 Fairlane Dr", "address2": "Deliver To Pharmacy", "city": "Allen Park", "county": "Wayne", "state_code": "MI", "zip_code": "48101", "lat": 42.279312, "lng": -83.208072, "order_label": "Molnupiravir"}, "2863": {"provider_name": "Meijer Store 068", "address1": "37201 Warren Road", "address2": "Deliver To Pharmacy", "city": "Westland", "county": "Wayne", "state_code": "MI", "zip_code": "48185", "lat": 42.334539, "lng": -83.407308, "order_label": "Molnupiravir"}, "2864": {"provider_name": "Meijer Store 268", "address1": "1301 W Eight Mile Rd", "address2": "Deliver To Pharmacy", "city": "Detroit", "county": "Wayne", "state_code": "MI", "zip_code": "48203", "lat": 42.446514, "lng": -83.119458, "order_label": "Paxlovid"}, "2865": {"provider_name": "Meijer Store 054", "address1": "20401 Haggerty Rd", "address2": "Deliver To Pharmacy", "city": "Northville", "county": "Wayne", "state_code": "MI", "zip_code": "48167", "lat": 42.436547, "lng": -83.435057, "order_label": "Molnupiravir"}, "2866": {"provider_name": "Covenant Community Care - Moross", "address1": "20901 Moross Rd", "address2": null, "city": "Detroit", "county": "Wayne", "state_code": "MI", "zip_code": "48236", "lat": 42.424168, "lng": -82.927366, "order_label": "Paxlovid"}, "2867": {"provider_name": "Meijer Store 208", "address1": "3710 Dix Highway", "address2": "Deliver To Pharmacy", "city": "Lincoln Park", "county": "Wayne", "state_code": "MI", "zip_code": "48146", "lat": 42.23127, "lng": -83.194607, "order_label": "Molnupiravir"}, "2868": {"provider_name": "Comm Hlth + Social Services Chass", "address1": "5635 W Fort St", "address2": null, "city": "Detroit", "county": "Wayne", "state_code": "MI", "zip_code": "48209", "lat": 42.30946, "lng": -83.096742, "order_label": "Paxlovid"}, "2869": {"provider_name": "Meijer Store 286", "address1": "21431 Grand River Ave", "address2": "Deliver To Pharmacy", "city": "Detroit", "county": "Wayne", "state_code": "MI", "zip_code": "48219", "lat": 42.41305, "lng": -83.25222, "order_label": "Molnupiravir"}, "2870": {"provider_name": "Karmanos Cancer Center", "address1": "4100 John R St", "address2": "Mailcode Weoiph Attn Pharmacy", "city": "Detroit", "county": "Wayne", "state_code": "MI", "zip_code": "48201", "lat": 42.3519, "lng": -83.058198, "order_label": "Evusheld"}, "2871": {"provider_name": "Meijer Store 070", "address1": "22600 Allen Road", "address2": "Deliver To Pharmacy", "city": "Woodhaven", "county": "Wayne", "state_code": "MI", "zip_code": "48183", "lat": 42.144176, "lng": -83.226318, "order_label": "Molnupiravir"}, "2872": {"provider_name": "Ascension St. John Hospital", "address1": "22101 Moross Rd", "address2": null, "city": "Detroit", "county": "Wayne", "state_code": "MI", "zip_code": "48236", "lat": 42.418972, "lng": -82.914914, "order_label": "Evusheld"}, "2873": {"provider_name": "Wellness Plan Gateway", "address1": "2888 W Grand Blvd # 218", "address2": null, "city": "Detroit", "county": "Wayne", "state_code": "MI", "zip_code": "48202", "lat": 42.367237, "lng": -83.081033, "order_label": "Paxlovid"}, "2874": {"provider_name": "Henry Ford Hospital - Main Camp", "address1": "2799 West Grand Blvd", "address2": null, "city": "Detroit", "county": "Wayne", "state_code": "MI", "zip_code": "48202", "lat": 42.366129, "lng": -83.08455, "order_label": "Evusheld"}, "2875": {"provider_name": "Meijer Store 032", "address1": "45001 Ford Road", "address2": "Deliver To Pharmacy", "city": "Canton", "county": "Wayne", "state_code": "MI", "zip_code": "48187", "lat": 42.322021, "lng": -83.484346, "order_label": "Molnupiravir"}, "2876": {"provider_name": "Meijer Store 072", "address1": "9701 Belleville Road", "address2": "Deliver To Pharmacy", "city": "Belleville", "county": "Wayne", "state_code": "MI", "zip_code": "48111", "lat": 42.232791, "lng": -83.485862, "order_label": "Molnupiravir"}, "2877": {"provider_name": "Meijer Store 278", "address1": "26100 Vreeland Rd", "address2": "Deliver To Pharmacy", "city": "Flat Rock", "county": "Wayne", "state_code": "MI", "zip_code": "48134", "lat": 42.108994, "lng": -83.288856, "order_label": "Molnupiravir"}, "2878": {"provider_name": "Meijer Store 123", "address1": "16300 Fort Street", "address2": "Deliver To Pharmacy", "city": "Southgate", "county": "Wayne", "state_code": "MI", "zip_code": "48195", "lat": 42.189518, "lng": -83.182908, "order_label": "Molnupiravir"}, "2879": {"provider_name": "Meijer Store 035", "address1": "14640 Pardee Road", "address2": "Deliver To Pharmacy", "city": "Taylor", "county": "Wayne", "state_code": "MI", "zip_code": "48180", "lat": 42.198954, "lng": -83.258137, "order_label": "Molnupiravir"}}, "treatments": {"2861": {"Molnupiravir": 40}, "2862": {"Molnupiravir": 40}, "2863": {"Molnupiravir": 30}, "2864": {"Molnupiravir": 38, "Paxlovid": 76}, "2865": {"Molnupiravir": 39}, "2866": {"Paxlovid": 40}, "2867": {"Molnupiravir": 40}, "2868": {"Paxlovid": 20}, "2869": {"Molnupiravir": 40}, "2870": {"Evusheld": 214}, "2871": {"Molnupiravir": 40}, "2872": {"Evusheld": 497}, "2873": {"Paxlovid": 20}, "2874": {"Evusheld": 350}, "2875": {"Molnupiravir": 39}, "2876": {"Molnupiravir": 39}, "2877": {"Molnupiravir": 40}, "2878": {"Molnupiravir": 20}, "2879": {"Molnupiravir": 35}}}