{"path": ["MI", "Wayne"], "total_courses": {"2022/01/05": {"Evusheld": 1896, "Molnupiravir": 560, "Paxlovid": 200}, "2022/01/07": {"Evusheld": 1608, "Molnupiravir": 560, "Paxlovid": 200}, "2022/01/10": {"Evusheld": 2544, "Molnupiravir": 560, "Paxlovid": 200}, "2022/01/11": {"Evusheld": 1608, "Molnupiravir": 560, "Paxlovid": 220}, "2022/01/12": {"Evusheld": 1608, "Molnupiravir": 560, "Paxlovid": 220}, "2022/01/13": {"Evusheld": 1608, "Molnupiravir": 560, "Paxlovid": 240}}, "courses_delivered": {"2022/01/05": {"Evusheld": 504, "Molnupiravir": 200, "Paxlovid": 3}, "2022/01/07": {"Evusheld": 1000, "Molnupiravir": 221, "Paxlovid": 5}, "2022/01/10": {"Evusheld": 1456, "Molnupiravir": 222, "Paxlovid": 8}, "2022/01/11": {"Evusheld": 937, "Molnupiravir": 265, "Paxlovid": 10}, "2022/01/12": {"Evusheld": 956, "Molnupiravir": 106, "Paxlovid": 10}, "2022/01/13": {"Evusheld": 788, "Molnupiravir": 107, "Paxlovid": 32}}, "courses_available": {"2022/01/05": {"Evusheld": 120, "Molnupiravir": 160, "Paxlovid": 117}, "2022/01/07": {"Evusheld": 584, "Molnupiravir": 259, "Paxlovid": 115}, "2022/01/10": {"Evusheld": 1064, "Molnupiravir": 298, "Paxlovid": 112}, "2022/01/11": {"Evusheld": 647, "Molnupiravir": 255, "Paxlovid": 110}, "2022/01/12": {"Evusheld": 628, "Molnupiravir": 414, "Paxlovid": 110}, "2022/01/13": {"Evusheld": 796, "Molnupiravir": 413, "Paxlovid": 108}}, "children": {}, "child_treatments": [], "providers": {"1185": {"provider_name": "Meijer Store 068", "address1": "37201 Warren Road", "address2": null, "city": "Westland", "county": "Wayne", "state_code": "MI", "zip_code": "48185", "lat": 42.334539, "lng": -83.407308, "order_label": "Molnupiravir"}, "1186": {"provider_name": "Meijer Store 054", "address1": "20401 Haggerty Rd", "address2": null, "city": "Northville", "county": "Wayne", "state_code": "MI", "zip_code": "48167", "lat": 42.436547, "lng": -83.435057, "order_label": "Molnupiravir"}, "1187": {"provider_name": "Meijer Store 286", "address1": "21431 Grand River Ave", "address2": null, "city": "Detroit", "county": "Wayne", "state_code": "MI", "zip_code": "48219", "lat": 42.41305, "lng": -83.25222, "order_label": "Molnupiravir"}, "1188": {"provider_name": "Meijer Store 268", "address1": "1301 W Eight Mile Rd", "address2": null, "city": "Detroit", "county": "Wayne", "state_code": "MI", "zip_code": "48203", "lat": 42.446514, "lng": -83.119458, "order_label": "Paxlovid"}, "1189": {"provider_name": "Henry Ford Hospital - Main Camp", "address1": "2799 West Grand Blvd", "address2": null, "city": "Detroit", "county": "Wayne", "state_code": "MI", "zip_code": "48202", "lat": 42.366129, "lng": -83.08455, "order_label": "Evusheld"}, "1190": {"provider_name": "Meijer Store 123", "address1": "16300 Fort Street", "address2": null, "city": "Southgate", "county": "Wayne", "state_code": "MI", "zip_code": "48195", "lat": 42.189518, "lng": -83.182908, "order_label": "Molnupiravir"}, "1191": {"provider_name": "Karmanos Cancer Center", "address1": "4100 John R St", "address2": "Mailcode Weoiph Attn Pharmacy", "city": "Detroit", "county": "Wayne", "state_code": "MI", "zip_code": "48201", "lat": 42.3519, "lng": -83.058198, "order_label": "Evusheld"}, "1192": {"provider_name": "Comm Hlth + Social Services Chass", "address1": "5635 W Fort St", "address2": null, "city": "Detroit", "county": "Wayne", "state_code": "MI", "zip_code": "48209", "lat": 42.30946, "lng": -83.096742, "order_label": "Paxlovid"}, "1193": {"provider_name": "Meijer Store 070", "address1": "22600 Allen Road", "address2": null, "city": "Woodhaven", "county": "Wayne", "state_code": "MI", "zip_code": "48183", "lat": 42.144176, "lng": -83.226318, "order_label": "Molnupiravir"}, "1194": {"provider_name": "Meijer Store 208", "address1": "3710 Dix Highway", "address2": null, "city": "Lincoln Park", "county": "Wayne", "state_code": "MI", "zip_code": "48146", "lat": 42.23127, "lng": -83.194607, "order_label": "Molnupiravir"}, "1195": {"provider_name": "Meijer Store 072", "address1": "9701 Belleville Road", "address2": null, "city": "Belleville", "county": "Wayne", "state_code": "MI", "zip_code": "48111", "lat": 42.232791, "lng": -83.485862, "order_label": "Molnupiravir"}, "1196": {"provider_name": "Meijer Store 233", "address1": "3565 Fairlane Dr", "address2": null, "city": "Allen Park", "county": "Wayne", "state_code": "MI", "zip_code": "48101", "lat": 42.279312, "lng": -83.208072, "order_label": "Molnupiravir"}, "1197": {"provider_name": "Meijer Store 278", "address1": "26100 Vreeland Rd", "address2": null, "city": "Flat Rock", "county": "Wayne", "state_code": "MI", "zip_code": "48134", "lat": 42.108994, "lng": -83.288856, "order_label": "Molnupiravir"}, "1198": {"provider_name": "Meijer Store 188", "address1": "13000 Middlebelt Rd", "address2": null, "city": "Livonia", "county": "Wayne", "state_code": "MI", "zip_code": "48150", "lat": 42.378515, "lng": -83.33347, "order_label": "Molnupiravir"}, "1199": {"provider_name": "Ascension St. John Hospital", "address1": "22101 Moross Rd", "address2": null, "city": "Detroit", "county": "Wayne", "state_code": "MI", "zip_code": "48236", "lat": 42.418972, "lng": -82.914914, "order_label": "Evusheld"}, "1200": {"provider_name": "Meijer Store 035", "address1": "14640 Pardee Road", "address2": null, "city": "Taylor", "county": "Wayne", "state_code": "MI", "zip_code": "48180", "lat": 42.198954, "lng": -83.258137, "order_label": "Molnupiravir"}, "1201": {"provider_name": "Meijer Store 032", "address1": "45001 Ford Road", "address2": null, "city": "Canton", "county": "Wayne", "state_code": "MI", "zip_code": "48187", "lat": 42.322021, "lng": -83.484346, "order_label": "Molnupiravir"}}, "treatments": {"1185": {"Molnupiravir": 18}, "1186": {"Molnupiravir": 40}, "1187": {"Molnupiravir": 40}, "1188": {"Molnupiravir": 20, "Paxlovid": 88}, "1189": {"Evusheld": 144}, "1190": {"Molnupiravir": 40}, "1191": {"Evusheld": 148}, "1192": {"Paxlovid": 20}, "1193": {"Molnupiravir": 20}, "1194": {"Molnupiravir": 40}, "1195": {"Molnupiravir": 39}, "1196": {"Molnupiravir": 20}, "1197": {"Molnupiravir": 40}, "1198": {"Molnupiravir": 40}, "1199": {"Evusheld": 504}, "1200": {"Molnupiravir": 37}, "1201": {"Molnupiravir": 19}}}