{"path": ["MI", "Wayne"], "total_courses": {"2021/12/28": {"Evusheld": 0, "Molnupiravir": 0, "Paxlovid": 0}, "2021/12/29": {"Evusheld": 0, "Molnupiravir": 0, "Paxlovid": 0}, "2021/12/30": {"Evusheld": 0, "Molnupiravir": 0, "Paxlovid": 0}, "2022/01/03": {"Evusheld": 432, "Molnupiravir": 520, "Paxlovid": 180}, "2022/01/04": {"Evusheld": 1752, "Molnupiravir": 560, "Paxlovid": 200}, "2022/01/05": {"Evusheld": 1896, "Molnupiravir": 560, "Paxlovid": 200}, "2022/01/07": {"Evusheld": 1608, "Molnupiravir": 560, "Paxlovid": 200}}, "courses_delivered": {"2021/12/28": {"Evusheld": 0, "Molnupiravir": 0, "Paxlovid": 0}, "2021/12/29": {"Evusheld": 0, "Molnupiravir": 0, "Paxlovid": 0}, "2021/12/30": {"Evusheld": 0, "Molnupiravir": 0, "Paxlovid": 0}, "2022/01/03": {"Evusheld": 0, "Molnupiravir": 0, "Paxlovid": 0}, "2022/01/04": {"Evusheld": 240, "Molnupiravir": 80, "Paxlovid": 1}, "2022/01/05": {"Evusheld": 504, "Molnupiravir": 200, "Paxlovid": 3}, "2022/01/07": {"Evusheld": 1000, "Molnupiravir": 221, "Paxlovid": 5}}, "courses_available": {"2021/12/28": {"Evusheld": 0, "Molnupiravir": 0, "Paxlovid": 0}, "2021/12/29": {"Evusheld": 0, "Molnupiravir": 0, "Paxlovid": 0}, "2021/12/30": {"Evusheld": 0, "Molnupiravir": 0, "Paxlovid": 0}, "2022/01/03": {"Evusheld": 120, "Molnupiravir": 0, "Paxlovid": 120}, "2022/01/04": {"Evusheld": 240, "Molnupiravir": 40, "Paxlovid": 119}, "2022/01/05": {"Evusheld": 120, "Molnupiravir": 160, "Paxlovid": 117}, "2022/01/07": {"Evusheld": 584, "Molnupiravir": 259, "Paxlovid": 115}}, "children": [], "providers": {"ChIJF2Vi1AdIO4gRqFUIK7nuUAQ": {"provider_name": "Meijer Store 035", "address1": "14640 Pardee Road", "address2": null, "city": "Taylor", "county": "Wayne", "state_code": "MI", "zip_code": "48180", "lat": 42.19837829999999, "lng": -83.26109629999999, "place_id": "ChIJF2Vi1AdIO4gRqFUIK7nuUAQ", "order_label": "Molnupiravir"}, "ChIJOYT1iqJTO4gRlS33PcS14Ds": {"provider_name": "Meijer Store 032", "address1": "45001 Ford Road", "address2": null, "city": "Canton", "county": "Wayne", "state_code": "MI", "zip_code": "48187", "lat": 42.3191941, "lng": -83.4846913, "place_id": "ChIJOYT1iqJTO4gRlS33PcS14Ds", "order_label": "Molnupiravir"}, "ChIJF5RgFhPWJIgRxzDMIVCctIg": {"provider_name": "Covenant Community Care - Moross", "address1": "20901 Moross Rd", "address2": null, "city": "Detroit", "county": "Wayne", "state_code": "MI", "zip_code": "48236", "lat": 42.4244406, "lng": -82.927172, "place_id": "ChIJF5RgFhPWJIgRxzDMIVCctIg", "order_label": "Paxlovid"}, "ChIJA8T8uJI4O4gRLflq4W6sA94": {"provider_name": "Meijer Store 070", "address1": "22600 Allen Road", "address2": null, "city": "Woodhaven", "county": "Wayne", "state_code": "MI", "zip_code": "48183", "lat": 42.1442047, "lng": -83.2301901, "place_id": "ChIJA8T8uJI4O4gRLflq4W6sA94", "order_label": "Molnupiravir"}, "ChIJdVFew-OtJIgRU1kf-G1jXIc": {"provider_name": "Meijer Store 054", "address1": "20401 Haggerty Rd", "address2": null, "city": "Northville", "county": "Wayne", "state_code": "MI", "zip_code": "48167", "lat": 42.4384236, "lng": -83.4370703, "place_id": "ChIJdVFew-OtJIgRU1kf-G1jXIc", "order_label": "Molnupiravir"}, "ChIJ1wQEIF_OJIgRubRWnKFFs-M": {"provider_name": "Meijer Store 268", "address1": "1301 W Eight Mile Rd", "address2": null, "city": "Detroit", "county": "Wayne", "state_code": "MI", "zip_code": "48203", "lat": 42.4446792, "lng": -83.1192245, "place_id": "ChIJ1wQEIF_OJIgRubRWnKFFs-M", "order_label": "Paxlovid"}, "ChIJ4Qt7JfW1JIgRV8NU0_FTvj8": {"provider_name": "Meijer Store 286", "address1": "21431 Grand River Ave", "address2": null, "city": "Detroit", "county": "Wayne", "state_code": "MI", "zip_code": "48219", "lat": 42.4121747, "lng": -83.2527753, "place_id": "ChIJ4Qt7JfW1JIgRV8NU0_FTvj8", "order_label": "Molnupiravir"}, "ChIJSwxQXZ-0JIgRoBmqzYobwWM": {"provider_name": "Meijer Store 188", "address1": "13000 Middlebelt Rd", "address2": null, "city": "Livonia", "county": "Wayne", "state_code": "MI", "zip_code": "48150", "lat": 42.3775884, "lng": -83.3310092, "place_id": "ChIJSwxQXZ-0JIgRoBmqzYobwWM", "order_label": "Molnupiravir"}, "ChIJNUMNRmTNJIgRzWJOdCl2Blg": {"provider_name": "Henry Ford Hospital - Main Camp", "address1": "2799 West Grand Blvd", "address2": null, "city": "Detroit", "county": "Wayne", "state_code": "MI", "zip_code": "48202", "lat": 42.3674808, "lng": -83.0863911, "place_id": "ChIJNUMNRmTNJIgRzWJOdCl2Blg", "order_label": "Evusheld"}, "ChIJA2zOt-tQO4gR-OS1BYsbrt0": {"provider_name": "Meijer Store 072", "address1": "9701 Belleville Road", "address2": null, "city": "Belleville", "county": "Wayne", "state_code": "MI", "zip_code": "48111", "lat": 42.2322214, "lng": -83.48309189999999, "place_id": "ChIJA2zOt-tQO4gR-OS1BYsbrt0", "order_label": "Molnupiravir"}, "ChIJib_utG9NO4gRUHT-fhLKFAE": {"provider_name": "Meijer Store 068", "address1": "37201 Warren Road", "address2": null, "city": "Westland", "county": "Wayne", "state_code": "MI", "zip_code": "48185", "lat": 42.3337187, "lng": -83.4084388, "place_id": "ChIJib_utG9NO4gRUHT-fhLKFAE", "order_label": "Molnupiravir"}, "ChIJawzSWSw0O4gRBkTINK1z4uY": {"provider_name": "Meijer Store 233", "address1": "3565 Fairlane Dr", "address2": null, "city": "Allen Park", "county": "Wayne", "state_code": "MI", "zip_code": "48101", "lat": 42.278982, "lng": -83.204082, "place_id": "ChIJawzSWSw0O4gRBkTINK1z4uY", "order_label": "Molnupiravir"}, "ChIJ2TAhPtdAO4gRL5ZLCRpWEP8": {"provider_name": "Meijer Store 278", "address1": "26100 Vreeland Rd", "address2": null, "city": "Flat Rock", "county": "Wayne", "state_code": "MI", "zip_code": "48134", "lat": 42.110762, "lng": -83.28906219999999, "place_id": "ChIJ2TAhPtdAO4gRL5ZLCRpWEP8", "order_label": "Molnupiravir"}, "ChIJkawo0QTWJIgRLWl8v1oE-hI": {"provider_name": "Ascension St. John Hospital", "address1": "22101 Moross Rd", "address2": null, "city": "Detroit", "county": "Wayne", "state_code": "MI", "zip_code": "48236", "lat": 42.4198301, "lng": -82.914852, "place_id": "ChIJkawo0QTWJIgRLWl8v1oE-hI", "order_label": "Evusheld"}, "ChIJFWhKseI2O4gR3yjozsRP3Fk": {"provider_name": "Meijer Store 208", "address1": "3710 Dix Highway", "address2": null, "city": "Lincoln Park", "county": "Wayne", "state_code": "MI", "zip_code": "48146", "lat": 42.2325153, "lng": -83.196643, "place_id": "ChIJFWhKseI2O4gR3yjozsRP3Fk", "order_label": "Molnupiravir"}, "ChIJo5Tsi8fSJIgRoX-E9ktekIY": {"provider_name": "Karmanos Cancer Center", "address1": "4100 John R St", "address2": "Mailcode Weoiph Attn Pharmacy", "city": "Detroit", "county": "Wayne", "state_code": "MI", "zip_code": "48201", "lat": 42.3527307, "lng": -83.0573038, "place_id": "ChIJo5Tsi8fSJIgRoX-E9ktekIY", "order_label": "Evusheld"}}, "treatments": {"ChIJF2Vi1AdIO4gRqFUIK7nuUAQ": {"Molnupiravir": 20}, "ChIJOYT1iqJTO4gRlS33PcS14Ds": {"Molnupiravir": 40}, "ChIJF5RgFhPWJIgRxzDMIVCctIg": {"Paxlovid": 20}, "ChIJA8T8uJI4O4gRLflq4W6sA94": {"Molnupiravir": 20}, "ChIJdVFew-OtJIgRU1kf-G1jXIc": {"Molnupiravir": 20}, "ChIJ1wQEIF_OJIgRubRWnKFFs-M": {"Molnupiravir": 20, "Paxlovid": 95}, "ChIJ4Qt7JfW1JIgRV8NU0_FTvj8": {"Molnupiravir": 20}, "ChIJSwxQXZ-0JIgRoBmqzYobwWM": {"Molnupiravir": 20}, "ChIJNUMNRmTNJIgRzWJOdCl2Blg": {"Evusheld": 144}, "ChIJA2zOt-tQO4gR-OS1BYsbrt0": {"Molnupiravir": 20}, "ChIJib_utG9NO4gRUHT-fhLKFAE": {"Molnupiravir": 19}, "ChIJawzSWSw0O4gRBkTINK1z4uY": {"Molnupiravir": 20}, "ChIJ2TAhPtdAO4gRL5ZLCRpWEP8": {"Molnupiravir": 20}, "ChIJkawo0QTWJIgRLWl8v1oE-hI": {"Evusheld": 336}, "ChIJFWhKseI2O4gR3yjozsRP3Fk": {"Molnupiravir": 20}, "ChIJo5Tsi8fSJIgRoX-E9ktekIY": {"Evusheld": 104}}}