{"path": ["MI", "Wayne"], "total_courses": {"2021/12/28": {"Evusheld": 0, "Molnupiravir": 0, "Paxlovid": 0}, "2021/12/29": {"Evusheld": 0, "Molnupiravir": 0, "Paxlovid": 0}, "2021/12/30": {"Evusheld": 0, "Molnupiravir": 0, "Paxlovid": 0}, "2022/01/03": {"Evusheld": 432, "Molnupiravir": 520, "Paxlovid": 180}, "2022/01/04": {"Evusheld": 1752, "Molnupiravir": 560, "Paxlovid": 200}, "2022/01/05": {"Evusheld": 1896, "Molnupiravir": 560, "Paxlovid": 200}}, "courses_delivered": {"2021/12/28": {"Evusheld": 0, "Molnupiravir": 0, "Paxlovid": 0}, "2021/12/29": {"Evusheld": 0, "Molnupiravir": 0, "Paxlovid": 0}, "2021/12/30": {"Evusheld": 0, "Molnupiravir": 0, "Paxlovid": 0}, "2022/01/03": {"Evusheld": 0, "Molnupiravir": 0, "Paxlovid": 0}, "2022/01/04": {"Evusheld": 240, "Molnupiravir": 80, "Paxlovid": 1}, "2022/01/05": {"Evusheld": 504, "Molnupiravir": 200, "Paxlovid": 3}}, "courses_available": {"2021/12/28": {"Evusheld": 0, "Molnupiravir": 0, "Paxlovid": 0}, "2021/12/29": {"Evusheld": 0, "Molnupiravir": 0, "Paxlovid": 0}, "2021/12/30": {"Evusheld": 0, "Molnupiravir": 0, "Paxlovid": 0}, "2022/01/03": {"Evusheld": 120, "Molnupiravir": 0, "Paxlovid": 120}, "2022/01/04": {"Evusheld": 240, "Molnupiravir": 40, "Paxlovid": 119}, "2022/01/05": {"Evusheld": 120, "Molnupiravir": 160, "Paxlovid": 117}}, "children": [], "providers": {"ChIJSwxQXZ-0JIgRoBmqzYobwWM": {"provider_name": "Meijer Store 188", "address1": "13000 Middlebelt Rd", "address2": null, "city": "Livonia", "county": "Wayne", "state_code": "MI", "zip_code": "48150", "lat": 42.3775884, "lng": -83.3310092, "place_id": "ChIJSwxQXZ-0JIgRoBmqzYobwWM", "order_label": "Molnupiravir"}, "ChIJA2zOt-tQO4gR-OS1BYsbrt0": {"provider_name": "Meijer Store 072", "address1": "9701 Belleville Road", "address2": null, "city": "Belleville", "county": "Wayne", "state_code": "MI", "zip_code": "48111", "lat": 42.2322214, "lng": -83.48309189999999, "place_id": "ChIJA2zOt-tQO4gR-OS1BYsbrt0", "order_label": "Molnupiravir"}, "ChIJOYT1iqJTO4gRlS33PcS14Ds": {"provider_name": "Meijer Store 032", "address1": "45001 Ford Road", "address2": null, "city": "Canton", "county": "Wayne", "state_code": "MI", "zip_code": "48187", "lat": 42.3191941, "lng": -83.4846913, "place_id": "ChIJOYT1iqJTO4gRlS33PcS14Ds", "order_label": "Molnupiravir"}, "ChIJ4Qt7JfW1JIgRV8NU0_FTvj8": {"provider_name": "Meijer Store 286", "address1": "21431 Grand River Ave", "address2": null, "city": "Detroit", "county": "Wayne", "state_code": "MI", "zip_code": "48219", "lat": 42.4121747, "lng": -83.2527753, "place_id": "ChIJ4Qt7JfW1JIgRV8NU0_FTvj8", "order_label": "Molnupiravir"}, "ChIJ1wQEIF_OJIgRubRWnKFFs-M": {"provider_name": "Meijer Store 268", "address1": "1301 W Eight Mile Rd", "address2": null, "city": "Detroit", "county": "Wayne", "state_code": "MI", "zip_code": "48203", "lat": 42.4446792, "lng": -83.1192245, "place_id": "ChIJ1wQEIF_OJIgRubRWnKFFs-M", "order_label": "Paxlovid"}, "ChIJF2Vi1AdIO4gRqFUIK7nuUAQ": {"provider_name": "Meijer Store 035", "address1": "14640 Pardee Road", "address2": null, "city": "Taylor", "county": "Wayne", "state_code": "MI", "zip_code": "48180", "lat": 42.19837829999999, "lng": -83.26109629999999, "place_id": "ChIJF2Vi1AdIO4gRqFUIK7nuUAQ", "order_label": "Molnupiravir"}, "ChIJ2TAhPtdAO4gRL5ZLCRpWEP8": {"provider_name": "Meijer Store 278", "address1": "26100 Vreeland Rd", "address2": null, "city": "Flat Rock", "county": "Wayne", "state_code": "MI", "zip_code": "48134", "lat": 42.110762, "lng": -83.28906219999999, "place_id": "ChIJ2TAhPtdAO4gRL5ZLCRpWEP8", "order_label": "Molnupiravir"}, "ChIJo5Tsi8fSJIgRoX-E9ktekIY": {"provider_name": "Karmanos Cancer Center", "address1": "4100 John R St", "address2": "Mailcode Weoiph Attn Pharmacy", "city": "Detroit", "county": "Wayne", "state_code": "MI", "zip_code": "48201", "lat": 42.3527307, "lng": -83.0573038, "place_id": "ChIJo5Tsi8fSJIgRoX-E9ktekIY", "order_label": "Evusheld"}, "ChIJdVFew-OtJIgRU1kf-G1jXIc": {"provider_name": "Meijer Store 054", "address1": "20401 Haggerty Rd", "address2": null, "city": "Northville", "county": "Wayne", "state_code": "MI", "zip_code": "48167", "lat": 42.4384236, "lng": -83.4370703, "place_id": "ChIJdVFew-OtJIgRU1kf-G1jXIc", "order_label": "Molnupiravir"}, "ChIJF5RgFhPWJIgRxzDMIVCctIg": {"provider_name": "Covenant Community Care - Moross", "address1": "20901 Moross Rd", "address2": null, "city": "Detroit", "county": "Wayne", "state_code": "MI", "zip_code": "48236", "lat": 42.4244406, "lng": -82.927172, "place_id": "ChIJF5RgFhPWJIgRxzDMIVCctIg", "order_label": "Paxlovid"}, "ChIJA8T8uJI4O4gRLflq4W6sA94": {"provider_name": "Meijer Store 070", "address1": "22600 Allen Road", "address2": null, "city": "Woodhaven", "county": "Wayne", "state_code": "MI", "zip_code": "48183", "lat": 42.1442047, "lng": -83.2301901, "place_id": "ChIJA8T8uJI4O4gRLflq4W6sA94", "order_label": "Molnupiravir"}}, "treatments": {"ChIJSwxQXZ-0JIgRoBmqzYobwWM": {"Molnupiravir": 20}, "ChIJA2zOt-tQO4gR-OS1BYsbrt0": {"Molnupiravir": 20}, "ChIJOYT1iqJTO4gRlS33PcS14Ds": {"Molnupiravir": 20}, "ChIJ4Qt7JfW1JIgRV8NU0_FTvj8": {"Molnupiravir": 20}, "ChIJ1wQEIF_OJIgRubRWnKFFs-M": {"Paxlovid": 97}, "ChIJF2Vi1AdIO4gRqFUIK7nuUAQ": {"Molnupiravir": 20}, "ChIJ2TAhPtdAO4gRL5ZLCRpWEP8": {"Molnupiravir": 20}, "ChIJo5Tsi8fSJIgRoX-E9ktekIY": {"Evusheld": 60}, "ChIJdVFew-OtJIgRU1kf-G1jXIc": {"Molnupiravir": 20}, "ChIJF5RgFhPWJIgRxzDMIVCctIg": {"Paxlovid": 20}, "ChIJA8T8uJI4O4gRLflq4W6sA94": {"Molnupiravir": 20}}}