{"path": ["IN", "Allen"], "total_courses": {"2022/01/05": {"Evusheld": 528, "Molnupiravir": 220, "Paxlovid": 120}, "2022/01/07": {"Evusheld": 264, "Molnupiravir": 220, "Paxlovid": 80}, "2022/01/10": {"Evusheld": 528, "Molnupiravir": 220, "Paxlovid": 120}}, "courses_delivered": {"2022/01/05": {"Evusheld": 96, "Molnupiravir": 1, "Paxlovid": 6}, "2022/01/07": {"Evusheld": 48, "Molnupiravir": 1, "Paxlovid": 14}, "2022/01/10": {"Evusheld": 96, "Molnupiravir": 1, "Paxlovid": 18}}, "courses_available": {"2022/01/05": {"Evusheld": 432, "Molnupiravir": 159, "Paxlovid": 114}, "2022/01/07": {"Evusheld": 216, "Molnupiravir": 159, "Paxlovid": 66}, "2022/01/10": {"Evusheld": 432, "Molnupiravir": 219, "Paxlovid": 102}}, "children": {}, "child_treatments": [], "providers": {"1182": {"provider_name": "Parkview Regional Medical Center", "address1": "11109 Parkview Plaza Drive", "address2": null, "city": "Fort Wayne", "county": "Allen", "state_code": "IN", "zip_code": "46845", "lat": 41.187123, "lng": -85.099458, "order_label": "Paxlovid"}, "1183": {"provider_name": "Lutheran Hospital", "address1": "7950 W. Jefferson Blvd.", "address2": null, "city": "Fort Wayne", "county": "Allen", "state_code": "IN", "zip_code": "46804", "lat": 41.037621, "lng": -85.245539, "order_label": "Evusheld"}, "1184": {"provider_name": "Walmart Pharmacy #5025", "address1": "10420 Maysville Rd", "address2": null, "city": "Fort Wayne", "county": "Allen", "state_code": "IN", "zip_code": "46835", "lat": 41.130533, "lng": -85.010462, "order_label": "Molnupiravir"}, "1185": {"provider_name": "Lutheran Downtown Hospital", "address1": "702 Van Buren Street", "address2": null, "city": "Fort Wayne", "county": "Allen", "state_code": "IN", "zip_code": "46802", "lat": 41.078533, "lng": -85.150144, "order_label": "Paxlovid"}, "1186": {"provider_name": "Cvs Store #05369", "address1": "6279 E. State Blvd.", "address2": "Cvs Pharmacy", "city": "Fort Wayne", "county": "Allen", "state_code": "IN", "zip_code": "46815", "lat": 41.100292, "lng": -85.060864, "order_label": "Molnupiravir"}, "1187": {"provider_name": "Cvs Store #05696", "address1": "10170 Illinois Rd", "address2": "Cvs Pharmacy", "city": "Fort Wayne", "county": "Allen", "state_code": "IN", "zip_code": "46804", "lat": 41.074169, "lng": -85.274283, "order_label": "Molnupiravir"}, "1188": {"provider_name": "Cvs Store #06519", "address1": "5802 South Anthony Blvd.", "address2": "Cvs Pharmacy", "city": "Fort Wayne", "county": "Allen", "state_code": "IN", "zip_code": "46816", "lat": 41.031185, "lng": -85.112715, "order_label": "Molnupiravir"}}, "treatments": {"1182": {"Paxlovid": 40, "Evusheld": 168}, "1183": {"Evusheld": 48, "Paxlovid": 7}, "1184": {"Molnupiravir": 60}, "1185": {"Paxlovid": 15}, "1186": {"Molnupiravir": 60}, "1187": {"Molnupiravir": 59}, "1188": {"Molnupiravir": 40}}}