{"path": ["IN", "Allen"], "total_courses": {"2022/01/05": {"Evusheld": 528, "Molnupiravir": 220, "Paxlovid": 120}, "2022/01/07": {"Evusheld": 264, "Molnupiravir": 220, "Paxlovid": 80}, "2022/01/10": {"Evusheld": 528, "Molnupiravir": 220, "Paxlovid": 120}, "2022/01/11": {"Evusheld": 264, "Molnupiravir": 260, "Paxlovid": 80}}, "courses_delivered": {"2022/01/05": {"Evusheld": 96, "Molnupiravir": 1, "Paxlovid": 6}, "2022/01/07": {"Evusheld": 48, "Molnupiravir": 1, "Paxlovid": 14}, "2022/01/10": {"Evusheld": 96, "Molnupiravir": 1, "Paxlovid": 18}, "2022/01/11": {"Evusheld": 48, "Molnupiravir": 4, "Paxlovid": 28}}, "courses_available": {"2022/01/05": {"Evusheld": 432, "Molnupiravir": 159, "Paxlovid": 114}, "2022/01/07": {"Evusheld": 216, "Molnupiravir": 159, "Paxlovid": 66}, "2022/01/10": {"Evusheld": 432, "Molnupiravir": 219, "Paxlovid": 102}, "2022/01/11": {"Evusheld": 216, "Molnupiravir": 216, "Paxlovid": 52}}, "children": {}, "child_treatments": [], "providers": {"1807": {"provider_name": "Parkview Regional Medical Center", "address1": "11109 Parkview Plaza Drive", "address2": null, "city": "Fort Wayne", "county": "Allen", "state_code": "IN", "zip_code": "46845", "lat": 41.187123, "lng": -85.099458, "order_label": "Evusheld"}, "1808": {"provider_name": "Cvs Store #05696", "address1": "10170 Illinois Rd", "address2": "Cvs Pharmacy", "city": "Fort Wayne", "county": "Allen", "state_code": "IN", "zip_code": "46804", "lat": 41.074169, "lng": -85.274283, "order_label": "Molnupiravir"}, "1809": {"provider_name": "Walmart Pharmacy #5025", "address1": "10420 Maysville Rd", "address2": null, "city": "Fort Wayne", "county": "Allen", "state_code": "IN", "zip_code": "46835", "lat": 41.130533, "lng": -85.010462, "order_label": "Molnupiravir"}, "1810": {"provider_name": "Cvs Store #05369", "address1": "6279 E. State Blvd.", "address2": "Cvs Pharmacy", "city": "Fort Wayne", "county": "Allen", "state_code": "IN", "zip_code": "46815", "lat": 41.100292, "lng": -85.060864, "order_label": "Molnupiravir"}, "1811": {"provider_name": "Cvs Store #06519", "address1": "5802 South Anthony Blvd.", "address2": "Cvs Pharmacy", "city": "Fort Wayne", "county": "Allen", "state_code": "IN", "zip_code": "46816", "lat": 41.031185, "lng": -85.112715, "order_label": "Molnupiravir"}, "1812": {"provider_name": "Lutheran Hospital", "address1": "7950 W. Jefferson Blvd.", "address2": null, "city": "Fort Wayne", "county": "Allen", "state_code": "IN", "zip_code": "46804", "lat": 41.037621, "lng": -85.245539, "order_label": "Evusheld"}, "1813": {"provider_name": "Lutheran Downtown Hospital", "address1": "702 Van Buren Street", "address2": null, "city": "Fort Wayne", "county": "Allen", "state_code": "IN", "zip_code": "46802", "lat": 41.078533, "lng": -85.150144, "order_label": "Paxlovid"}}, "treatments": {"1807": {"Paxlovid": 40, "Evusheld": 168}, "1808": {"Molnupiravir": 59}, "1809": {"Molnupiravir": 59}, "1810": {"Molnupiravir": 58}, "1811": {"Molnupiravir": 40}, "1812": {"Evusheld": 48}, "1813": {"Paxlovid": 12}}}