{"path": ["IN", "Allen"], "total_courses": {"2022/01/05": {"Evusheld": 528, "Molnupiravir": 220, "Paxlovid": 120}, "2022/01/07": {"Evusheld": 264, "Molnupiravir": 220, "Paxlovid": 80}, "2022/01/10": {"Evusheld": 528, "Molnupiravir": 220, "Paxlovid": 120}, "2022/01/11": {"Evusheld": 264, "Molnupiravir": 260, "Paxlovid": 80}, "2022/01/12": {"Evusheld": 264, "Molnupiravir": 260, "Paxlovid": 80}, "2022/01/13": {"Evusheld": 264, "Molnupiravir": 260, "Paxlovid": 100}}, "courses_delivered": {"2022/01/05": {"Evusheld": 96, "Molnupiravir": 1, "Paxlovid": 6}, "2022/01/07": {"Evusheld": 48, "Molnupiravir": 1, "Paxlovid": 14}, "2022/01/10": {"Evusheld": 96, "Molnupiravir": 1, "Paxlovid": 18}, "2022/01/11": {"Evusheld": 48, "Molnupiravir": 4, "Paxlovid": 28}, "2022/01/12": {"Evusheld": 48, "Molnupiravir": 9, "Paxlovid": 33}, "2022/01/13": {"Evusheld": 0, "Molnupiravir": 15, "Paxlovid": 34}}, "courses_available": {"2022/01/05": {"Evusheld": 432, "Molnupiravir": 159, "Paxlovid": 114}, "2022/01/07": {"Evusheld": 216, "Molnupiravir": 159, "Paxlovid": 66}, "2022/01/10": {"Evusheld": 432, "Molnupiravir": 219, "Paxlovid": 102}, "2022/01/11": {"Evusheld": 216, "Molnupiravir": 216, "Paxlovid": 52}, "2022/01/12": {"Evusheld": 216, "Molnupiravir": 211, "Paxlovid": 47}, "2022/01/13": {"Evusheld": 264, "Molnupiravir": 205, "Paxlovid": 46}}, "children": {}, "child_treatments": [], "providers": {"247": {"provider_name": "Cvs Store #06519", "address1": "5802 South Anthony Blvd.", "address2": "Cvs Pharmacy", "city": "Fort Wayne", "county": "Allen", "state_code": "IN", "zip_code": "46816", "lat": 41.031185, "lng": -85.112715, "order_label": "Molnupiravir"}, "248": {"provider_name": "Walmart Pharmacy #5025", "address1": "10420 Maysville Rd", "address2": null, "city": "Fort Wayne", "county": "Allen", "state_code": "IN", "zip_code": "46835", "lat": 41.130533, "lng": -85.010462, "order_label": "Molnupiravir"}, "249": {"provider_name": "Parkview Regional Medical Center", "address1": "11109 Parkview Plaza Drive", "address2": null, "city": "Fort Wayne", "county": "Allen", "state_code": "IN", "zip_code": "46845", "lat": 41.187123, "lng": -85.099458, "order_label": "Evusheld"}, "250": {"provider_name": "Cvs Store #05696", "address1": "10170 Illinois Rd", "address2": "Cvs Pharmacy", "city": "Fort Wayne", "county": "Allen", "state_code": "IN", "zip_code": "46804", "lat": 41.074169, "lng": -85.274283, "order_label": "Molnupiravir"}, "251": {"provider_name": "Cvs Store #05369", "address1": "6279 E. State Blvd.", "address2": "Cvs Pharmacy", "city": "Fort Wayne", "county": "Allen", "state_code": "IN", "zip_code": "46815", "lat": 41.100292, "lng": -85.060864, "order_label": "Molnupiravir"}, "252": {"provider_name": "Lutheran Downtown Hospital", "address1": "702 Van Buren Street", "address2": null, "city": "Fort Wayne", "county": "Allen", "state_code": "IN", "zip_code": "46802", "lat": 41.078533, "lng": -85.150144, "order_label": "Paxlovid"}, "253": {"provider_name": "Lutheran Hospital", "address1": "7950 W. Jefferson Blvd.", "address2": null, "city": "Fort Wayne", "county": "Allen", "state_code": "IN", "zip_code": "46804", "lat": 41.037621, "lng": -85.245539, "order_label": "Evusheld"}}, "treatments": {"247": {"Molnupiravir": 40}, "248": {"Molnupiravir": 59}, "249": {"Paxlovid": 40, "Evusheld": 216}, "250": {"Molnupiravir": 59}, "251": {"Molnupiravir": 47}, "252": {"Paxlovid": 6}, "253": {"Evusheld": 48}}}