{"path": ["IN", "Allen"], "total_courses": {"2022/01/05": {"Evusheld": 528, "Molnupiravir": 220, "Paxlovid": 120}, "2022/01/07": {"Evusheld": 264, "Molnupiravir": 220, "Paxlovid": 80}, "2022/01/10": {"Evusheld": 528, "Molnupiravir": 220, "Paxlovid": 120}, "2022/01/11": {"Evusheld": 264, "Molnupiravir": 260, "Paxlovid": 80}, "2022/01/12": {"Evusheld": 264, "Molnupiravir": 260, "Paxlovid": 80}, "2022/01/13": {"Evusheld": 264, "Molnupiravir": 260, "Paxlovid": 100}, "2022/01/14": {"Evusheld": 288, "Molnupiravir": 260, "Paxlovid": 160}, "2022/01/19": {"Evusheld": 312, "Molnupiravir": 380, "Paxlovid": 180}, "2022/01/21": {"Evusheld": 360, "Molnupiravir": 380, "Paxlovid": 240}, "2022/01/24": {"Evusheld": 360, "Molnupiravir": 380, "Paxlovid": 240}, "2022/01/25": {"Evusheld": 432, "Molnupiravir": 500, "Paxlovid": 380}}, "courses_delivered": {"2022/01/05": {"Evusheld": 96, "Molnupiravir": 1, "Paxlovid": 6}, "2022/01/07": {"Evusheld": 48, "Molnupiravir": 1, "Paxlovid": 14}, "2022/01/10": {"Evusheld": 96, "Molnupiravir": 1, "Paxlovid": 18}, "2022/01/11": {"Evusheld": 48, "Molnupiravir": 4, "Paxlovid": 28}, "2022/01/12": {"Evusheld": 48, "Molnupiravir": 9, "Paxlovid": 33}, "2022/01/13": {"Evusheld": 0, "Molnupiravir": 15, "Paxlovid": 34}, "2022/01/14": {"Evusheld": 24, "Molnupiravir": 18, "Paxlovid": 95}, "2022/01/19": {"Evusheld": 24, "Molnupiravir": 142, "Paxlovid": 58}, "2022/01/21": {"Evusheld": 0, "Molnupiravir": 43, "Paxlovid": 120}, "2022/01/24": {"Evusheld": 0, "Molnupiravir": 23, "Paxlovid": 100}, "2022/01/25": {"Evusheld": 24, "Molnupiravir": 147, "Paxlovid": 166}}, "courses_available": {"2022/01/05": {"Evusheld": 432, "Molnupiravir": 159, "Paxlovid": 114}, "2022/01/07": {"Evusheld": 216, "Molnupiravir": 159, "Paxlovid": 66}, "2022/01/10": {"Evusheld": 432, "Molnupiravir": 219, "Paxlovid": 102}, "2022/01/11": {"Evusheld": 216, "Molnupiravir": 216, "Paxlovid": 52}, "2022/01/12": {"Evusheld": 216, "Molnupiravir": 211, "Paxlovid": 47}, "2022/01/13": {"Evusheld": 264, "Molnupiravir": 205, "Paxlovid": 46}, "2022/01/14": {"Evusheld": 264, "Molnupiravir": 202, "Paxlovid": 45}, "2022/01/19": {"Evusheld": 264, "Molnupiravir": 198, "Paxlovid": 82}, "2022/01/21": {"Evusheld": 288, "Molnupiravir": 297, "Paxlovid": 100}, "2022/01/24": {"Evusheld": 288, "Molnupiravir": 317, "Paxlovid": 120}, "2022/01/25": {"Evusheld": 288, "Molnupiravir": 313, "Paxlovid": 194}}, "children": {}, "child_treatments": [], "providers": {"3399": {"provider_name": "Walgreens Store #04190", "address1": "6730 Bluffton Rd", "address2": null, "city": "Fort Wayne", "county": "Allen", "state_code": "IN", "zip_code": "46809", "lat": 41.02107, "lng": -85.16928}, "3400": {"provider_name": "Cvs Store #06519", "address1": "5802 South Anthony Blvd.", "address2": "Cvs Pharmacy", "city": "Fort Wayne", "county": "Allen", "state_code": "IN", "zip_code": "46816", "lat": 41.031185, "lng": -85.112715}, "3401": {"provider_name": "Lutheran Hospital", "address1": "7950 W. Jefferson Blvd.", "address2": "Attn: Inpatient Pharmacy", "city": "Fort Wayne", "county": "Allen", "state_code": "IN", "zip_code": "46804", "lat": 41.037621, "lng": -85.245539}, "3402": {"provider_name": "Walgreens Store #03129", "address1": "6201 Stellhorn Rd", "address2": null, "city": "Fort Wayne", "county": "Allen", "state_code": "IN", "zip_code": "46815", "lat": 41.120482, "lng": -85.062006}, "3403": {"provider_name": "Cvs Store #05696", "address1": "10170 Illinois Rd", "address2": "Cvs Pharmacy", "city": "Fort Wayne", "county": "Allen", "state_code": "IN", "zip_code": "46804", "lat": 41.074169, "lng": -85.274283}, "3404": {"provider_name": "Walmart Pharmacy #5025", "address1": "10420 Maysville Rd", "address2": null, "city": "Fort Wayne", "county": "Allen", "state_code": "IN", "zip_code": "46835", "lat": 41.130533, "lng": -85.010462}, "3405": {"provider_name": "Walgreens Store #06868", "address1": "330 W State Blvd", "address2": null, "city": "Fort Wayne", "county": "Allen", "state_code": "IN", "zip_code": "46808", "lat": 41.096143, "lng": -85.145522}, "3406": {"provider_name": "Parkview Regional Medical Center", "address1": "11109 Parkview Plaza Drive", "address2": null, "city": "Fort Wayne", "county": "Allen", "state_code": "IN", "zip_code": "46845", "lat": 41.187123, "lng": -85.099458}, "3407": {"provider_name": "Dupont Hospital", "address1": "2520 E. Dupont Road", "address2": null, "city": "Fort Wayne", "county": "Allen", "state_code": "IN", "zip_code": "46825", "lat": 41.178692, "lng": -85.110437}, "3408": {"provider_name": "Lutheran Downtown Hospital", "address1": "702 Van Buren Street", "address2": null, "city": "Fort Wayne", "county": "Allen", "state_code": "IN", "zip_code": "46802", "lat": 41.078533, "lng": -85.150144}, "3409": {"provider_name": "Cvs Store #05369", "address1": "6279 E. State Blvd.", "address2": "Cvs Pharmacy", "city": "Fort Wayne", "county": "Allen", "state_code": "IN", "zip_code": "46815", "lat": 41.100292, "lng": -85.060864}}, "treatments": {"3399": {"Paxlovid": 20}, "3400": {"Molnupiravir": 39}, "3401": {"Evusheld": 72, "Paxlovid": 15}, "3402": {"Paxlovid": 40}, "3403": {"Molnupiravir": 96}, "3404": {"Molnupiravir": 76}, "3405": {"Paxlovid": 20}, "3406": {"Evusheld": 216, "Paxlovid": 59}, "3407": {"Paxlovid": 20}, "3408": {"Paxlovid": 20}, "3409": {"Molnupiravir": 102}}}