{"path": ["TX", "Johnson"], "total_courses": {"2022/01/05": {"Molnupiravir": 80}, "2022/01/07": {"Molnupiravir": 80}, "2022/01/10": {"Molnupiravir": 80}, "2022/01/11": {"Molnupiravir": 80}, "2022/01/12": {"Molnupiravir": 80}, "2022/01/13": {"Molnupiravir": 80}, "2022/01/14": {"Molnupiravir": 160, "Paxlovid": 40}, "2022/01/19": {"Molnupiravir": 240, "Paxlovid": 40}, "2022/01/21": {"Molnupiravir": 240, "Paxlovid": 40}, "2022/01/24": {"Molnupiravir": 260, "Paxlovid": 40}, "2022/01/25": {"Molnupiravir": 400, "Paxlovid": 80}}, "courses_delivered": {"2022/01/05": {"Molnupiravir": 0}, "2022/01/07": {"Molnupiravir": 0}, "2022/01/10": {"Molnupiravir": 0}, "2022/01/11": {"Molnupiravir": 0}, "2022/01/12": {"Molnupiravir": 1}, "2022/01/13": {"Molnupiravir": 1}, "2022/01/14": {"Molnupiravir": 43, "Paxlovid": 0}, "2022/01/19": {"Molnupiravir": 65, "Paxlovid": 2}, "2022/01/21": {"Molnupiravir": 81, "Paxlovid": 3}, "2022/01/24": {"Molnupiravir": 42, "Paxlovid": 6}, "2022/01/25": {"Molnupiravir": 123, "Paxlovid": 71}}, "courses_available": {"2022/01/05": {"Molnupiravir": 0}, "2022/01/07": {"Molnupiravir": 40}, "2022/01/10": {"Molnupiravir": 40}, "2022/01/11": {"Molnupiravir": 40}, "2022/01/12": {"Molnupiravir": 39}, "2022/01/13": {"Molnupiravir": 39}, "2022/01/14": {"Molnupiravir": 37, "Paxlovid": 0}, "2022/01/19": {"Molnupiravir": 75, "Paxlovid": 41}, "2022/01/21": {"Molnupiravir": 119, "Paxlovid": 39}, "2022/01/24": {"Molnupiravir": 198, "Paxlovid": 35}, "2022/01/25": {"Molnupiravir": 217, "Paxlovid": 9}}, "children": {}, "child_treatments": [], "providers": {"4315": {"provider_name": "Brookshire Grocery Company", "address1": "1001 Joshua Station St", "address2": null, "city": "Joshua", "county": "Johnson", "state_code": "TX", "zip_code": "76058", "lat": 32.44721, "lng": -97.386554}, "4316": {"provider_name": "Walmart Pharmacy #220", "address1": "951 Sw Wilshire Blvd", "address2": null, "city": "Burleson", "county": "Johnson", "state_code": "TX", "zip_code": "76028", "lat": 32.529028, "lng": -97.340003}, "4317": {"provider_name": "Best Value Royces Pharmacy", "address1": "502 N Main St", "address2": null, "city": "Cleburne", "county": "Johnson", "state_code": "TX", "zip_code": "76033", "lat": 32.351274, "lng": -97.387877}, "4318": {"provider_name": "Best Value West Pharmacy", "address1": "124 W Renfro St", "address2": null, "city": "Burleson", "county": "Johnson", "state_code": "TX", "zip_code": "76028", "lat": 32.542936, "lng": -97.322315}, "4319": {"provider_name": "Walmart Pharmacy #228", "address1": "1616 W Henderson St", "address2": null, "city": "Cleburne", "county": "Johnson", "state_code": "TX", "zip_code": "76033", "lat": 32.338477, "lng": -97.413469}, "4320": {"provider_name": "Texas Health Huguley Hospital", "address1": "11801 S Freeway", "address2": null, "city": "Burleson", "county": "Johnson", "state_code": "TX", "zip_code": "76028", "lat": 32.585454, "lng": -97.319102}, "4321": {"provider_name": "Walgreens Store #05377", "address1": "833 Sw Wilshire Blvd", "address2": null, "city": "Burleson", "county": "Johnson", "state_code": "TX", "zip_code": "76028", "lat": 32.530728, "lng": -97.338573}, "4322": {"provider_name": "Johnson Pharmacy", "address1": "113 Ne Johnson Ave Ste 300", "address2": null, "city": "Burleson", "county": "Johnson", "state_code": "TX", "zip_code": "76028", "lat": 32.543315, "lng": -97.3242}}, "treatments": {"4315": {"Molnupiravir": 20}, "4316": {"Molnupiravir": 19}, "4317": {"Molnupiravir": 74}, "4318": {"Molnupiravir": 26}, "4319": {"Paxlovid": 9}, "4320": {"Molnupiravir": 20}, "4321": {"Molnupiravir": 40}, "4322": {"Molnupiravir": 18}}}